OBJECTID,CONAME,ADDR,CITY,STATE_NAME,STATE,ZIP,ZIP4,NAICS,NAICS_ALL,SIC,SIC_ALL,INDUSTRY_DESC,AFFILIATE,BRAND,HQNAME,LOC_CONF,NAICS_SECT,PLACETYPE,SQFOOTAGE,MIN_SQFT,MAX_SQFT,EMPNUM,SALESVOL,SOURCE,ESRI_PID,DESC_,LATITUDE,LONGITUDE,CreationDate,Creator,EditDate,Editor
1,34 Drive in Theatre,E 12th Rd,Earlville,Illinois,IL,60518,,51213202,"51213202, 71111007",783301,"783301, 792207","Drive-In Motion Picture Theaters, Theatres-Live",,,,High,Information,Independent,1 - 1499,1.0,1499.0,3,110000.0,Data Axle,9dfc3b4cfd231f99653cc15d7e4ebed8,"34 Drive in Theatre, Earlville, Illinois",41.580677999999985,-88.936704,1758493555740,Synapse54,1758493555740,Synapse54
2,Alamo Drafthouse Wrigleyville,N Clark St # Suitec301 St,Chicago,Illinois,IL,60657,,51213101,"51213101, 72241001, 72251117, 71131005, 72241003",783201,"783201, 581301, 581208, 651211, 581303","Theatres-Movie, Bars, Restaurants, Event Centers, Cocktail Lounges",,,Alamo Drafthouse Cinemas,Low,Information,Branch,1 - 1499,1.0,1499.0,3,207000.0,Data Axle,03320ecfd9096fb1d47784b8c26009ee,"Alamo Drafthouse Wrigleyville, Chicago, Illinois",41.939694999999986,-87.66901000000001,1758493555740,Synapse54,1758493555740,Synapse54
3,AMC Champaign 13,Meijer Dr,Champaign,Illinois,IL,61822,1237,51213101,51213101,783201,783201,Theatres-Movie,,,"American Multi-Cinema, Inc",High,Information,Branch,40000 - 99999,40000.0,99999.0,18,1121000.0,Data Axle,846c319d83e9730f6ae2e6f05022aa51,"AMC Champaign 13, Champaign, Illinois",40.14752699999999,-88.26023300000001,1758493555740,Synapse54,1758493555740,Synapse54
4,AMC Chicago Ridge 6,Chicago Ridge Mall,Chicago Ridge,Illinois,IL,60415,2605,51213101,51213101,783201,783201,Theatres-Movie,,,"American Multi-Cinema, Inc",High,Information,Branch,100000+,100000.0,,38,2611000.0,Data Axle,a788b2cbfc03c1353c48dc3b8aee2bcc,"AMC Chicago Ridge 6, Chicago Ridge, Illinois",41.71528599999997,-87.782537,1758493555740,Synapse54,1758493555740,Synapse54
5,AMC Cicero 14,W Cermak Rd,Cicero,Illinois,IL,60804,2508,51213101,51213101,783201,783201,Theatres-Movie,,,"American Multi-Cinema, Inc",High,Information,Branch,100000+,100000.0,,49,3367000.0,Data Axle,2a96e5a12f46504302a7b594a063bafb,"AMC Cicero 14, Cicero, Illinois",41.848888999999986,-87.74255899999999,1758493555740,Synapse54,1758493555740,Synapse54
6,AMC CLASSIC Decatur 10,S Mount Zion Rd,Decatur,Illinois,IL,62521,9719,51213101,51213101,783201,783201,Theatres-Movie,,,"American Multi-Cinema, Inc",High,Information,Branch,40000 - 99999,40000.0,99999.0,15,1063000.0,Data Axle,898460d1ccecdb01b82b0e61d58c052f,"AMC CLASSIC Decatur 10, Decatur, Illinois",39.813683000000005,-88.876113,1758493555740,Synapse54,1758493555740,Synapse54
7,AMC CLASSIC Galesburg 8,W Carl Sandburg Dr,Galesburg,Illinois,IL,61401,1370,51213101,51213101,783201,783201,Theatres-Movie,,,"American Multi-Cinema, Inc",High,Information,Branch,40000 - 99999,40000.0,99999.0,20,1256000.0,Data Axle,c3f704ae13d454de462c5506697ff5fb,"AMC CLASSIC Galesburg 8, Galesburg, Illinois",40.969925,-90.39482399999999,1758493555740,Synapse54,1758493555740,Synapse54
8,AMC CLASSIC Grand Prairie 18,W American Prairie Dr,Peoria,Illinois,IL,61615,9267,51213101,51213101,783201,783201,Theatres-Movie,,,"American Multi-Cinema, Inc",High,Information,Branch,40000 - 99999,40000.0,99999.0,23,1393000.0,Data Axle,ecc5551022b6c6d46f9e8eec7bef88a9,"AMC CLASSIC Grand Prairie 18, Peoria, Illinois",40.78307299999999,-89.67671600000001,1758493555740,Synapse54,1758493555740,Synapse54
9,AMC CLASSIC Illinois Centre 8,Civic Circle Blvd,Marion,Illinois,IL,62959,5222,51213101,51213101,783201,783201,Theatres-Movie,,,"American Multi-Cinema, Inc",High,Information,Branch,40000 - 99999,40000.0,99999.0,15,794000.0,Data Axle,60fe5e36e7cd31eb3a6d8d6884731249,"AMC CLASSIC Illinois Centre 8, Marion, Illinois",37.75072900000001,-88.979417,1758493555740,Synapse54,1758493555740,Synapse54
10,AMC CLASSIC Mattoon 10,Hurst Dr,Mattoon,Illinois,IL,61938,9251,51213101,51213101,783201,783201,Theatres-Movie,,,"American Multi-Cinema, Inc",High,Information,Branch,40000 - 99999,40000.0,99999.0,18,831000.0,Data Axle,5afe3a508c76f4bc5f51699129cf2da8,"AMC CLASSIC Mattoon 10, Mattoon, Illinois",39.48178,-88.305903,1758493555740,Synapse54,1758493555740,Synapse54
11,AMC CLASSIC Morris 10,Gore Rd,Morris,Illinois,IL,60450,8600,51213101,51213101,783201,783201,Theatres-Movie,,,"American Multi-Cinema, Inc",High,Information,Branch,40000 - 99999,40000.0,99999.0,26,1608000.0,Data Axle,755f62c1c0c9cc751c8d42034d079cad,"AMC CLASSIC Morris 10, Morris, Illinois",41.386034999999985,-88.428629,1758493555740,Synapse54,1758493555740,Synapse54
12,AMC CLASSIC Mount Vernon 8,Potomac Blvd,Mount Vernon,Illinois,IL,62864,9601,51213101,51213101,783201,783201,Theatres-Movie,,,"American Multi-Cinema, Inc",High,Information,Branch,40000 - 99999,40000.0,99999.0,17,863000.0,Data Axle,c02fee7d13638f4545e8f8e9728e8702,"AMC CLASSIC Mount Vernon 8, Mount Vernon, Illinois",38.320572,-88.95861599999999,1758493555740,Synapse54,1758493555740,Synapse54
13,AMC CLASSIC Normal 14,Mcknight St,Normal,Illinois,IL,61761,5279,51213101,51213101,783201,783201,Theatres-Movie,,,"American Multi-Cinema, Inc",High,Information,Branch,40000 - 99999,40000.0,99999.0,17,1033000.0,Data Axle,a67dad90b9063691ccbf67df6ca08e19,"AMC CLASSIC Normal 14, Normal, Illinois",40.537942,-88.990118,1758493555740,Synapse54,1758493555740,Synapse54
14,AMC CLASSIC Pekin 14,Edgewater Dr,North Pekin,Illinois,IL,61554,1588,51213101,51213101,783201,783201,Theatres-Movie,,,"American Multi-Cinema, Inc",High,Information,Branch,2500 - 4999,2500.0,4999.0,4,,Data Axle,1a47091dd36dfb8b4d017be8d466302d,"AMC CLASSIC Pekin 14, North Pekin, Illinois",40.60248200000001,-89.62951699999998,1758493555740,Synapse54,1758493555740,Synapse54
15,AMC CLASSIC Quincy 6,N 33 Rd St,Quincy,Illinois,IL,62301,3781,51213101,51213101,783201,783201,Theatres-Movie,,,"American Multi-Cinema, Inc",High,Information,Branch,40000 - 99999,40000.0,99999.0,21,1074000.0,Data Axle,50f51cf763c413ffd8c7ef08825f019a,"AMC CLASSIC Quincy 6, Quincy, Illinois",39.934040999999986,-91.362577,1758493555740,Synapse54,1758493555740,Synapse54
16,AMC CLASSIC Sauk Valley 8,E 30 Th St,Sterling,Illinois,IL,61081,9798,51213101,51213101,783201,783201,Theatres-Movie,,,"American Multi-Cinema, Inc",High,Information,Branch,40000 - 99999,40000.0,99999.0,18,851000.0,Data Axle,c7af8a2de859cfef84b54eb7ad48061d,"AMC CLASSIC Sauk Valley 8, Sterling, Illinois",41.817965,-89.64866399999997,1758493555740,Synapse54,1758493555740,Synapse54
17,AMC CLASSIC Springfield 12,Mercantile Dr,Springfield,Illinois,IL,62711,6438,51213101,51213101,783201,783201,Theatres-Movie,,,"American Multi-Cinema, Inc",High,Information,Branch,40000 - 99999,40000.0,99999.0,18,973000.0,Data Axle,f30706417d6d20275c7a67853f91d5e5,"AMC CLASSIC Springfield 12, Springfield, Illinois",39.75464199999999,-89.727304,1758493555740,Synapse54,1758493555740,Synapse54
18,AMC CLASSIC Sunnyland 10,Washington Plz,Washington,Illinois,IL,61571,1973,51213101,51213101,783201,783201,Theatres-Movie,,,"American Multi-Cinema, Inc",Medium,Information,Branch,40000 - 99999,40000.0,99999.0,22,1241000.0,Data Axle,cc210c17f4b17b1bd36b9dc95b459367,"AMC CLASSIC Sunnyland 10, Washington, Illinois",40.69207000000001,-89.481738,1758493555740,Synapse54,1758493555740,Synapse54
19,AMC CLASSIC Village Mall 6,N Vermilion St,Danville,Illinois,IL,61832,1333,51213101,51213101,783201,783201,Theatres-Movie,,,"American Multi-Cinema, Inc",High,Information,Branch,100000+,100000.0,,31,2021000.0,Data Axle,893725f1774723f6522284faf8e07d5d,"AMC CLASSIC Village Mall 6, Danville, Illinois",40.17169999999998,-87.62935299999998,1758493555740,Synapse54,1758493555740,Synapse54
20,AMC Crestwood 18,Rivercrest Dr,Crestwood,Illinois,IL,60418,4474,51213101,51213101,783201,783201,Theatres-Movie,,,"American Multi-Cinema, Inc",High,Information,Branch,100000+,100000.0,,37,2543000.0,Data Axle,ae8cc690eb890ad3bbaedcc3d32dd9e3,"AMC Crestwood 18, Crestwood, Illinois",41.651543999999994,-87.74425999999997,1758493555740,Synapse54,1758493555740,Synapse54
21,AMC DINE-IN 600 North Michigan 9,N Michigan Ave,Chicago,Illinois,IL,60611,3113,51213101,51213101,783201,783201,Theatres-Movie,,,"American Multi-Cinema, Inc",High,Information,Branch,100000+,100000.0,,50,3436000.0,Data Axle,3a9007c354fcabccd1cb82841f12cf34,"AMC DINE-IN 600 North Michigan 9, Chicago, Illinois",41.892926,-87.624872,1758493555740,Synapse54,1758493555740,Synapse54
22,AMC DINE-IN Block 37,N State St,Chicago,Illinois,IL,60602,1609,51213101,51213101,783201,783201,Theatres-Movie,,,"American Multi-Cinema, Inc",High,Information,Branch,100000+,100000.0,,49,3367000.0,Data Axle,eb1c5d48502190685c822bc5b277515e,"AMC DINE-IN Block 37, Chicago, Illinois",41.88418,-87.62905799999999,1758493555740,Synapse54,1758493555740,Synapse54
23,AMC DINE-IN Northbrook 14,Lake Cook Rd,Northbrook,Illinois,IL,60062,1441,51213101,51213101,783201,783201,Theatres-Movie,,,"American Multi-Cinema, Inc",High,Information,Branch,100000+,100000.0,,57,3917000.0,Data Axle,ff3809c9e116d6b26d9675ea319eb03c,"AMC DINE-IN Northbrook 14, Northbrook, Illinois",42.149654,-87.816796,1758493555740,Synapse54,1758493555740,Synapse54
24,AMC DINE-IN Rosemont 12,Bryn Mawr Ave,Rosemont,Illinois,IL,60018,5210,51213101,51213101,783201,783201,Theatres-Movie,,,"American Multi-Cinema, Inc",High,Information,Branch,40000 - 99999,40000.0,99999.0,28,1924000.0,Data Axle,8d09dfafc427080d386c648d3b474213,"AMC DINE-IN Rosemont 12, Rosemont, Illinois",41.980036999999996,-87.867545,1758493555740,Synapse54,1758493555740,Synapse54
25,AMC DINE-IN Yorktown 18,Yorktown Shopping Ctr,Lombard,Illinois,IL,60148,5529,51213101,51213101,783201,783201,Theatres-Movie,,,"American Multi-Cinema, Inc",High,Information,Branch,100000+,100000.0,,40,2739000.0,Data Axle,97d93610141eb45aad20f25338e1bf20,"AMC DINE-IN Yorktown 18, Lombard, Illinois",41.84018499999998,-88.001731,1758493555740,Synapse54,1758493555740,Synapse54
26,AMC Edwardsville 12,Center Grove Rd,Edwardsville,Illinois,IL,62025,2803,51213101,51213101,783201,783201,Theatres-Movie,,,"American Multi-Cinema, Inc",High,Information,Branch,100000+,100000.0,,54,,Data Axle,572d098fa800eb9b197886736842090e,"AMC Edwardsville 12, Edwardsville, Illinois",38.78346599999999,-89.955729,1758493555740,Synapse54,1758493555740,Synapse54
27,AMC Evanston 12,Maple Ave,Evanston,Illinois,IL,60201,3133,51213101,51213101,783201,783201,Theatres-Movie,,,"American Multi-Cinema, Inc",High,Information,Branch,,,,60,4123000.0,Data Axle,e86cdadaf265d1864a9701538e6449d6,"AMC Evanston 12, Evanston, Illinois",42.04925699999999,-87.68429199999997,1758493555740,Synapse54,1758493555740,Synapse54
28,AMC Ford City 14,S Cicero Ave,Chicago,Illinois,IL,60652,1096,51213101,51213101,783201,783201,Theatres-Movie,,,"American Multi-Cinema, Inc",High,Information,Branch,100000+,100000.0,,50,3436000.0,Data Axle,10c5270151524910ac22bd07d1edea77,"AMC Ford City 14, Chicago, Illinois",41.755337000000004,-87.740573,1758493555740,Synapse54,1758493555740,Synapse54
29,AMC Galewood Crossings 14,W Homer St,Chicago,Illinois,IL,60639,4494,51213101,51213101,783201,783201,Theatres-Movie,,,"American Multi-Cinema, Inc",High,Information,Branch,40000 - 99999,40000.0,99999.0,27,1856000.0,Data Axle,57c1bd4959b6bd018ff195ff62032c00,"AMC Galewood Crossings 14, Chicago, Illinois",41.91590599999999,-87.764563,1758493555740,Synapse54,1758493555740,Synapse54
30,AMC Hawthorn 12,Hawthorn Ctr,Vernon Hills,Illinois,IL,60061,1511,51213101,51213101,783201,783201,Theatres-Movie,,,"American Multi-Cinema, Inc",High,Information,Branch,100000+,100000.0,,50,3659000.0,Data Axle,3f4a60e1779508a1caf0fce015a37e89,"AMC Hawthorn 12, Vernon Hills, Illinois",42.24420700000002,-87.949366,1758493555740,Synapse54,1758493555740,Synapse54
31,AMC Lake in the Hills 12,N Randall Rd,Lake in the Hills,Illinois,IL,60156,5961,51213101,51213101,783201,783201,Theatres-Movie,,,"American Multi-Cinema, Inc",High,Information,Branch,100000+,100000.0,,51,2840000.0,Data Axle,af63787ad3f644b566f3dbfd6ec1610c,"AMC Lake in the Hills 12, Lake in the Hills, Illinois",42.180258999999985,-88.333483,1758493555740,Synapse54,1758493555740,Synapse54
32,AMC Machesney Park 14,Anjali Way,Machesney Park,Illinois,IL,61115,7644,51213101,51213101,783201,783201,Theatres-Movie,,,"American Multi-Cinema, Inc",High,Information,Branch,40000 - 99999,40000.0,99999.0,23,1311000.0,Data Axle,e9c3ea558508eb950b9e1a02e00035ea,"AMC Machesney Park 14, Machesney Park, Illinois",42.371325000000006,-89.004408,1758493555740,Synapse54,1758493555740,Synapse54
33,AMC Market Square 10,Sycamore Rd,Dekalb,Illinois,IL,60115,2112,51213101,51213101,783201,783201,Theatres-Movie,,,"American Multi-Cinema, Inc",High,Information,Branch,100000+,100000.0,,56,2850000.0,Data Axle,73da5c1b9dd00bb6dcc8583445f9e940,"AMC Market Square 10, Dekalb, Illinois",41.947269999999996,-88.720571,1758493555740,Synapse54,1758493555740,Synapse54
34,AMC Naperville 16,Showplace Dr,Naperville,Illinois,IL,60564,5011,51213101,51213101,783201,783201,Theatres-Movie,,,"American Multi-Cinema, Inc",High,Information,Branch,40000 - 99999,40000.0,99999.0,21,1292000.0,Data Axle,e7bc5457df11e7a0e97e3cd31f0ab3c4,"AMC Naperville 16, Naperville, Illinois",41.712934000000004,-88.20924899999999,1758493555740,Synapse54,1758493555740,Synapse54
35,AMC New Lenox 14,W Maple St,New Lenox,Illinois,IL,60451,1644,51213101,51213101,783201,783201,Theatres-Movie,,,"American Multi-Cinema, Inc",High,Information,Branch,40000 - 99999,40000.0,99999.0,27,1660000.0,Data Axle,a74e0beb8afde7285030a439930a4d57,"AMC New Lenox 14, New Lenox, Illinois",41.51642,-87.991128,1758493555740,Synapse54,1758493555740,Synapse54
36,AMC Newcity 14,N Clybourn # Suitec301 Ave,Chicago,Illinois,IL,60610,,51213101,51213101,783201,783201,Theatres-Movie,,,"American Multi-Cinema, Inc",Low,Information,Branch,,,,44,3024000.0,Data Axle,decab90541bbc7798441c7ae8118b4c4,"AMC Newcity 14, Chicago, Illinois",41.90433999999998,-87.634475,1758493555740,Synapse54,1758493555740,Synapse54
37,AMC Niles 12,Golf Mill Ctr,Niles,Illinois,IL,60714,1217,51213101,51213101,783201,783201,Theatres-Movie,,,"American Multi-Cinema, Inc",High,Information,Branch,100000+,100000.0,,53,3642000.0,Data Axle,ea57122b5eef80a1c52ba06c4a8b6f51,"AMC Niles 12, Niles, Illinois",42.049730999999994,-87.837375,1758493555740,Synapse54,1758493555740,Synapse54
38,AMC Norridge 6,N Harlem Ave,Norridge,Illinois,IL,60706,4712,51213101,51213101,783201,783201,Theatres-Movie,,,"American Multi-Cinema, Inc",High,Information,Branch,100000+,100000.0,,61,4192000.0,Data Axle,0d5f1275fa66be353a977b6ba5383264,"AMC Norridge 6, Norridge, Illinois",41.962465999999985,-87.810593,1758493555740,Synapse54,1758493555740,Synapse54
39,AMC Oakbrook Center 12,Oakbrook Center # Top Level,Oak Brook,Illinois,IL,60523,,51213101,51213101,783201,783201,Theatres-Movie,,,"American Multi-Cinema, Inc",Low,Information,Branch,100000+,100000.0,,53,3630000.0,Data Axle,131e5d44cdef81c69ca9b537b9fe37f6,"AMC Oakbrook Center 12, Oak Brook, Illinois",41.82646499999997,-87.988075,1758493555740,Synapse54,1758493555740,Synapse54
40,AMC Oakbrook Center 4,Oakbrook Center # Lower Ctr,Oak Brook,Illinois,IL,60523,,51213101,51213101,783201,783201,Theatres-Movie,,,"American Multi-Cinema, Inc",Low,Information,Branch,100000+,100000.0,,53,3630000.0,Data Axle,baec5fc9c2924632e9c8ac3f42065e96,"AMC Oakbrook Center 4, Oak Brook, Illinois",41.82646499999997,-87.988075,1758493555740,Synapse54,1758493555740,Synapse54
41,AMC Peru Mall 8,State Route 51,Peru,Illinois,IL,61354,,51213101,51213101,783201,783201,Theatres-Movie,,,"American Multi-Cinema, Inc",Low,Information,Branch,40000 - 99999,40000.0,99999.0,17,875000.0,Data Axle,470d47c56bb0f42c35b33360041893a6,"AMC Peru Mall 8, Peru, Illinois",41.32985999999999,-89.13183,1758493555740,Synapse54,1758493555740,Synapse54
42,AMC Quarry Cinemas 14,W 63 Rd St,Hodgkins,Illinois,IL,60525,4157,51213101,51213101,783201,783201,Theatres-Movie,,,"American Multi-Cinema, Inc",High,Information,Branch,40000 - 99999,40000.0,99999.0,28,1924000.0,Data Axle,db010d58761f31b11236cc855bc9ee43,"AMC Quarry Cinemas 14, Hodgkins, Illinois",41.77664999999997,-87.85897499999999,1758493555740,Synapse54,1758493555740,Synapse54
43,AMC Randhurst 12,Randhurst Village Dr,Mount Prospect,Illinois,IL,60056,1297,51213101,51213101,783201,783201,Theatres-Movie,,,"American Multi-Cinema, Inc",High,Information,Branch,20000 - 39999,20000.0,39999.0,9,1095000.0,Data Axle,81e7be540d73df98af0df2da9e2ae616,"AMC Randhurst 12, Mount Prospect, Illinois",42.085774,-87.931244,1758493555740,Synapse54,1758493555740,Synapse54
44,AMC River East 21,E Illinois St,Chicago,Illinois,IL,60611,4364,51213101,51213101,783201,783201,Theatres-Movie,,,"American Multi-Cinema, Inc",High,Information,Branch,100000+,100000.0,,120,8245000.0,Data Axle,197f49a3d0aef6b7658ee711606327aa,"AMC River East 21, Chicago, Illinois",41.89143299999999,-87.61897199999999,1758493555740,Synapse54,1758493555740,Synapse54
45,AMC Rockford 16,E State St,Rockford,Illinois,IL,61108,2731,51213101,51213101,783201,783201,Theatres-Movie,,,"American Multi-Cinema, Inc",High,Information,Branch,40000 - 99999,40000.0,99999.0,23,1311000.0,Data Axle,07e96b1d94b3b5d51d041ae5492389eb,"AMC Rockford 16, Rockford, Illinois",42.270578999999984,-88.95342599999998,1758493555740,Synapse54,1758493555740,Synapse54
46,AMC South Barrington 24,Studio Dr,South Barrington,Illinois,IL,60010,7142,51213101,51213101,783201,783201,Theatres-Movie,,,"American Multi-Cinema, Inc",High,Information,Branch,100000+,100000.0,,101,6940000.0,Data Axle,11f95aaf585d010466735a2919a22dfb,"AMC South Barrington 24, South Barrington, Illinois",42.069937,-88.14859699999998,1758493555740,Synapse54,1758493555740,Synapse54
47,AMC Springfield 8,S Dirksen Pkwy,Springfield,Illinois,IL,62703,4505,51213101,51213101,783201,783201,Theatres-Movie,,,"American Multi-Cinema, Inc",High,Information,Branch,40000 - 99999,40000.0,99999.0,20,1095000.0,Data Axle,4f15b61f509093fa9fd6762ff8e0758d,"AMC Springfield 8, Springfield, Illinois",39.76386799999998,-89.60842599999998,1758493555740,Synapse54,1758493555740,Synapse54
48,AMC Streets of Woodfield 20,N Martingale Rd,Schaumburg,Illinois,IL,60173,5909,51213101,51213101,783201,783201,Theatres-Movie,,,"American Multi-Cinema, Inc",High,Information,Branch,100000+,100000.0,,46,3161000.0,Data Axle,8c2e0cfad9a54d883515cfe5acad0670,"AMC Streets of Woodfield 20, Schaumburg, Illinois",42.040505999999986,-88.03434,1758493555740,Synapse54,1758493555740,Synapse54
49,AMC University Place 8,E Main St,Carbondale,Illinois,IL,62901,3144,51213101,51213101,783201,783201,Theatres-Movie,,,"American Multi-Cinema, Inc",Medium,Information,Branch,40000 - 99999,40000.0,99999.0,19,939000.0,Data Axle,b58ae4556456ab45a4d5182ee4a9dfe9,"AMC University Place 8, Carbondale, Illinois",37.736084,-89.185462,1758493555740,Synapse54,1758493555740,Synapse54
50,AMC Village Crossing 18,Carpenter Rd,Skokie,Illinois,IL,60077,3236,51213101,51213101,783201,783201,Theatres-Movie,,,"American Multi-Cinema, Inc",High,Information,Branch,100000+,100000.0,,49,3367000.0,Data Axle,b2e7e3738daa764f3b8fb4d11f2e2a0c,"AMC Village Crossing 18, Skokie, Illinois",42.00961699999999,-87.76501000000002,1758493555740,Synapse54,1758493555740,Synapse54
51,Arlee Theater Inc,S Main St,Mason City,Illinois,IL,62664,1460,51213101,"51213101, 99999005",783201,"783201, 999966","Theatres-Movie, Federal Government Contractors",,,,High,Information,Independent,1500 - 2499,1500.0,2499.0,2,84000.0,Data Axle,4120422fcb86c4817fc4998e19cb324e,"Arlee Theater Inc, Mason City, Illinois",40.20170099999999,-89.69742899999999,1758493555740,Synapse54,1758493555740,Synapse54
52,Avon Theater,S Austin Ave,Decatur,Illinois,IL,62522,1838,51213101,51213101,783201,783201,Theatres-Movie,,,,High,Information,Independent,1500 - 2499,1500.0,2499.0,2,312000.0,Data Axle,33dcbb8cdda5398f7786d0aff53b9730,"Avon Theater, Decatur, Illinois",39.841852,-88.997076,1758493555740,Synapse54,1758493555740,Synapse54
53,Avon Theatre,N Water St,Decatur,Illinois,IL,62523,1138,51213101,"51213101, 71141013",783201,"783201, 792211","Theatres-Movie, Theatrical Managers & Producers",,,,High,Information,Independent,2500 - 4999,2500.0,4999.0,3,213000.0,Data Axle,142ef71ba8e1a6f7d09fc05f8afb1f15,"Avon Theatre, Decatur, Illinois",39.84518799999998,-88.95412600000002,1758493555740,Synapse54,1758493555740,Synapse54
54,Bar at IPIC Theaters,E Boughton Rd,Bolingbrook,Illinois,IL,60440,2486,51213101,51213101,783201,783201,Theatres-Movie,,,,High,Information,Independent,,,,45,,Data Axle,6473beb0154265d168bdb685a326247b,"Bar at IPIC Theaters, Bolingbrook, Illinois",41.718602999999995,-88.042207,1758493555740,Synapse54,1758493555740,Synapse54
55,Bensenville Theater & Sundae's Too Ice Cream Shop,S Center St,Bensenville,Illinois,IL,60106,2129,51213101,"51213101, 72251512",783201,"783201, 581203","Theatres-Movie, Ice Cream Parlors",,,,Medium,Information,Independent,2500 - 4999,2500.0,4999.0,4,274000.0,Data Axle,705acca2381b14b21861a84d2083398d,"Bensenville Theater & Sundae's Too Ice Cream Shop, Bensenville, Illinois",41.95652699999999,-87.94100800000001,1758493555740,Synapse54,1758493555740,Synapse54
56,Carbon Arc,N Lincoln Ave,Chicago,Illinois,IL,60625,2008,51213101,51213101,783201,783201,Theatres-Movie,,,,High,Information,Independent,1 - 1499,1.0,1499.0,2,,Data Axle,7f57cf5ceb758eaad8e7caba69b646ee,"Carbon Arc, Chicago, Illinois",41.96543099999999,-87.686837,1758493555740,Synapse54,1758493555740,Synapse54
57,Central Theatre,N State St,Geneseo,Illinois,IL,61254,1345,51213101,51213101,783201,783201,Theatres-Movie,,,,High,Information,Independent,2500 - 4999,2500.0,4999.0,3,146000.0,Data Axle,2cd2f95d9c7d15680ce80959f9b0ce56,"Central Theatre, Geneseo, Illinois",41.453493,-90.156071,1758493555740,Synapse54,1758493555740,Synapse54
58,Chicago Theater Works,W Belmont Ave,Chicago,Illinois,IL,60657,3312,51213101,51213101,783201,783201,Theatres-Movie,,,,High,Information,Independent,2500 - 4999,2500.0,4999.0,4,275000.0,Data Axle,fc41a9d0e95f97971215dddd93341843,"Chicago Theater Works, Chicago, Illinois",41.939608000000014,-87.657179,1758493555740,Synapse54,1758493555740,Synapse54
59,Cinema Chatham Powered By Emagine Theatres,W 87th St,Chicago,Illinois,IL,60620,1305,51213101,51213101,783201,783201,Theatres-Movie,,,"Emagine Entertainment, Inc",High,Information,Branch,2500 - 4999,2500.0,4999.0,4,275000.0,Data Axle,cb4094f23b3d7c787df3e0e1c681dac5,"Cinema Chatham Powered By Emagine Theatres, Chicago, Illinois",41.739326000000005,-87.630587,1758493555740,Synapse54,1758493555740,Synapse54
60,Cinema Home Solutions,Meadow Path,Manteno,Illinois,IL,60950,3742,51213101,51213101,783201,783201,Theatres-Movie,,,,High,Information,Independent,,,,37,2156000.0,Data Axle,b08e1cf2a6aad8171c3abe9338983d4d,"Cinema Home Solutions, Manteno, Illinois",41.23509399999998,-87.85600899999999,1758493555740,Synapse54,1758493555740,Synapse54
61,Cinema Libertad,S Michigan Ave,Chicago,Illinois,IL,60605,1472,51213101,"51213101, 51211008",783201,"783201, 781205","Theatres-Movie, Motion Picture Producers & Studios",,,,High,Information,Independent,20000 - 39999,20000.0,39999.0,5,344000.0,Data Axle,b727afbe0045a7464963ce04ae1f809e,"Cinema Libertad, Chicago, Illinois",41.87646800000001,-87.62484599999998,1758493555740,Synapse54,1758493555740,Synapse54
62,Cinema/Chicago,W Van Buren St,Chicago,Illinois,IL,60607,3978,51213101,"51213101, 71211004, 99999005",783201,"783201, 841202, 999966","Theatres-Movie, Arts Organizations & Information, Federal Government Contractors",,,,High,Information,Independent,5000 - 9999,5000.0,9999.0,7,481000.0,Data Axle,788d343669a0e71442fad5afd855c364,"Cinema/Chicago, Chicago, Illinois",41.877050999999994,-87.634311,1758493555740,Synapse54,1758493555740,Synapse54
63,Cinemark Bourbonnais Movies 10,N State Route 50,Bourbonnais,Illinois,IL,60914,5115,51213101,"51213101, 71394010",783201,"783201, 799935","Theatres-Movie, Halls & Auditoriums",,,"Cinemark USA, Inc",High,Information,Branch,100000+,100000.0,,29,1690000.0,Data Axle,9775f84e436389d34942bde433e01805,"Cinemark Bourbonnais Movies 10, Bourbonnais, Illinois",41.174361000000005,-87.848221,1758493555740,Synapse54,1758493555740,Synapse54
64,Cinemark Cantera Warrenville and XD,Diehl Rd,Warrenville,Illinois,IL,60555,2739,51213101,51213101,783201,783201,Theatres-Movie,,,"Cinemark USA, Inc",High,Information,Branch,,,,63,4314000.0,Data Axle,4badcac6c8380bff5925647f86cfbb2e,"Cinemark Cantera Warrenville and XD, Warrenville, Illinois",41.804922999999974,-88.171151,1758493555740,Synapse54,1758493555740,Synapse54
65,Cinemark Century Deer Park 16,W Field Pkwy,Deer Park,Illinois,IL,60010,7244,51213101,"51213101, 71394010",783201,"783201, 799935","Theatres-Movie, Halls & Auditoriums",,,"Cinemark USA, Inc",High,Information,Branch,20000 - 39999,20000.0,39999.0,15,,Data Axle,0ff08e4ec60e4c445c8b93270fadd216,"Cinemark Century Deer Park 16, Deer Park, Illinois",42.15939299999998,-88.054921,1758493555740,Synapse54,1758493555740,Synapse54
66,Cinemark Louis Joliet Mall,Mall Loop Dr,Joliet,Illinois,IL,60431,1092,51213101,"51213101, 71394010, 62132003, 45613004",783201,"783201, 799935, 804201, 599504","Theatres-Movie, Halls & Auditoriums, Optometrists OD, Opticians",,,"Cinemark USA, Inc",High,Information,Branch,40000 - 99999,40000.0,99999.0,15,923000.0,Data Axle,a66b57d72a7bd6a2fccb332001083819,"Cinemark Louis Joliet Mall, Joliet, Illinois",41.577943999999995,-88.16451199999997,1758493555740,Synapse54,1758493555740,Synapse54
67,Cinemark Melrose Park and XD,W North Ave,Melrose Park,Illinois,IL,60160,1500,51213101,"51213101, 72251115, 71394010",783201,"783201, 581222, 799935","Theatres-Movie, Pizza, Halls & Auditoriums",,,"Cinemark USA, Inc",High,Information,Branch,40000 - 99999,40000.0,99999.0,55,3779000.0,Data Axle,c7f2b53d23dd805f82ac622989388513,"Cinemark Melrose Park and XD, Melrose Park, Illinois",41.90977699999999,-87.84640599999999,1758493555740,Synapse54,1758493555740,Synapse54
68,Cinemark Seven Bridges and IMAX,Route 53,Woodridge,Illinois,IL,60517,1213,51213101,"51213101, 71394010",783201,"783201, 799935","Theatres-Movie, Halls & Auditoriums",,,"Cinemark USA, Inc",High,Information,Branch,20000 - 39999,20000.0,39999.0,11,819000.0,Data Axle,63491339c0c27e94dbedee5eb5bd016b,"Cinemark Seven Bridges and IMAX, Woodridge, Illinois",41.76766599999999,-88.069504,1758493555740,Synapse54,1758493555740,Synapse54
69,Cinemark Tinseltown USA Aurora,S Lincolnway,North Aurora,Illinois,IL,60542,1706,51213101,"51213101, 45712008, 71394010",783201,"783201, 554112, 799935","Theatres-Movie, Electric Charging Station, Halls & Auditoriums",,,"Cinemark USA, Inc",High,Information,Branch,40000 - 99999,40000.0,99999.0,21,1285000.0,Data Axle,a9e0aa7c3ce9dde3a393c7454fdd7627,"Cinemark Tinseltown USA Aurora, North Aurora, Illinois",41.791623999999985,-88.32501299999997,1758493555740,Synapse54,1758493555740,Synapse54
70,Cinemark West Dundee and XD,Spring Hill Mall,West Dundee,Illinois,IL,60118,1270,51213101,"51213101, 71394010",783201,"783201, 799935","Theatres-Movie, Halls & Auditoriums",,,"Cinemark USA, Inc",High,Information,Branch,100000+,100000.0,,50,2875000.0,Data Axle,6cce9f642a167950ed0746598fef9541,"Cinemark West Dundee and XD, West Dundee, Illinois",42.10205699999998,-88.29740700000002,1758493555740,Synapse54,1758493555740,Synapse54
71,Cinergy Cinemas in Wheeling,W Dundee Rd,Wheeling,Illinois,IL,60090,2765,51213101,"51213101, 72251117, 72241001",783201,"783201, 581208, 581301","Theatres-Movie, Restaurants, Bars",,,"Cinergy Entertainment Group, Inc",High,Information,Branch,,,,82,5634000.0,Data Axle,7b2360cd0328f9cd41db6b0afb0c6143,"Cinergy Cinemas in Wheeling, Wheeling, Illinois",42.137645,-87.92664799999999,1758493555740,Synapse54,1758493555740,Synapse54
72,Classic Cinemas,Rogers St,Downers Grove,Illinois,IL,60515,3773,51213101,51213101,783201,783201,Theatres-Movie,,,,High,Information,Headquarters,20000 - 39999,20000.0,39999.0,15,1028000.0,Data Axle,37593b22e7a482e9355e1306a28c70e6,"Classic Cinemas, Downers Grove, Illinois",41.79616099999999,-88.00039199999999,1758493555740,Synapse54,1758493555740,Synapse54
73,Classic Cinemas Charlestowne 18 XQ,E Main St,Saint Charles,Illinois,IL,60174,2464,51213101,51213101,783201,783201,Theatres-Movie,,,Classic Cinemas,High,Information,Branch,5000 - 9999,5000.0,9999.0,5,306000.0,Data Axle,1d56132f0dc66c4571308983aaaebaa4,"Classic Cinemas Charlestowne 18 XQ, Saint Charles, Illinois",41.924411,-88.270192,1758493555740,Synapse54,1758493555740,Synapse54
74,Classic Cinemas Cinema 12 XQ,Lw Besinger Dr,Carpentersville,Illinois,IL,60110,2086,51213101,51213101,783201,783201,Theatres-Movie,,,Classic Cinemas,High,Information,Branch,2500 - 4999,2500.0,4999.0,3,184000.0,Data Axle,b03de97b838dc1a60edce6b1e45687c3,"Classic Cinemas Cinema 12 XQ, Carpentersville, Illinois",42.11451300000001,-88.260983,1758493555740,Synapse54,1758493555740,Synapse54
75,Classic Cinemas Cinema 7,Duvick Ave,Sandwich,Illinois,IL,60548,1988,51213101,51213101,783201,783201,Theatres-Movie,,,Classic Cinemas,High,Information,Branch,,,,80,3488000.0,Data Axle,e1f844e99f76eddb673fe74bfb8b9d09,"Classic Cinemas Cinema 7, Sandwich, Illinois",41.646417999999976,-88.600318,1758493555740,Synapse54,1758493555740,Synapse54
76,Classic Cinemas Elk Grove XQ,Elk Grove Town Ctr,Elk Grove Village,Illinois,IL,60007,3757,51213101,51213101,783201,783201,Theatres-Movie,,,Classic Cinemas,Medium,Information,Branch,20000 - 39999,20000.0,39999.0,8,619000.0,Data Axle,5d156563adad580890bd359f9c7f607f,"Classic Cinemas Elk Grove XQ, Elk Grove Village, Illinois",42.00156199999999,-88.004135,1758493555740,Synapse54,1758493555740,Synapse54
77,Classic Cinemas Fox Lake,Towne Centre Ln,Fox Lake,Illinois,IL,60020,1801,51213101,51213101,783201,783201,Theatres-Movie,,,Classic Cinemas,High,Information,Branch,10000 - 19999,10000.0,19999.0,6,439000.0,Data Axle,b855479a30708a22cc612f3383a9c182,"Classic Cinemas Fox Lake, Fox Lake, Illinois",42.39540499999996,-88.17899799999999,1758493555740,Synapse54,1758493555740,Synapse54
78,Classic Cinemas Kendall 11,5th St,Oswego,Illinois,IL,60543,8304,51213101,51213101,783201,783201,Theatres-Movie,,,Classic Cinemas,High,Information,Branch,1500 - 2499,1500.0,2499.0,3,159000.0,Data Axle,53cc922c3b81fba0602c31103a514e1c,"Classic Cinemas Kendall 11, Oswego, Illinois",41.71764300000001,-88.314977,1758493555740,Synapse54,1758493555740,Synapse54
79,Classic Cinemas La Grange Theatre,S La Grange Rd,La Grange,Illinois,IL,60525,2429,51213101,51213101,783201,783201,Theatres-Movie,,,Classic Cinemas,High,Information,Branch,2500 - 4999,2500.0,4999.0,5,275000.0,Data Axle,e2f875d04cdf75a8a61970629c5c8097,"Classic Cinemas La Grange Theatre, La Grange, Illinois",41.81259599999999,-87.870083,1758493555740,Synapse54,1758493555740,Synapse54
80,Classic Cinemas Lake Theatre,Lake St,Oak Park,Illinois,IL,60301,1102,51213101,51213101,783201,783201,Theatres-Movie,,,Classic Cinemas,High,Information,Branch,2500 - 4999,2500.0,4999.0,5,344000.0,Data Axle,5095b73757cd06fa78706c0955d2fe57,"Classic Cinemas Lake Theatre, Oak Park, Illinois",41.889028999999994,-87.80154099999997,1758493555740,Synapse54,1758493555740,Synapse54
81,Classic Cinemas Lindo Theatre,S Chicago Ave,Freeport,Illinois,IL,61032,4334,51213101,51213101,783201,783201,Theatres-Movie,,,Classic Cinemas,High,Information,Branch,5000 - 9999,5000.0,9999.0,5,231000.0,Data Axle,dd4e40ce674a21a454971e7bb9070c62,"Classic Cinemas Lindo Theatre, Freeport, Illinois",42.297253999999995,-89.618693,1758493555740,Synapse54,1758493555740,Synapse54
82,Classic Cinemas Meadowview Theatre,Meadowview Ctr,Kankakee,Illinois,IL,60901,2041,51213101,51213101,783201,783201,Theatres-Movie,,,Classic Cinemas,High,Information,Branch,20000 - 39999,20000.0,39999.0,7,408000.0,Data Axle,89c0e82022dcc16afb2515d95fa8f3f9,"Classic Cinemas Meadowview Theatre, Kankakee, Illinois",41.135076000000005,-87.87134999999999,1758493555740,Synapse54,1758493555740,Synapse54
83,Classic Cinemas North Riverside XQ,W Cermak Rd,North Riverside,Illinois,IL,60546,1434,51213101,51213101,783201,783201,Theatres-Movie,,,Classic Cinemas,High,Information,Branch,20000 - 39999,20000.0,39999.0,9,619000.0,Data Axle,d0a7a3dcd785f74053dfcb32ffdad771,"Classic Cinemas North Riverside XQ, North Riverside, Illinois",41.847198,-87.810606,1758493555740,Synapse54,1758493555740,Synapse54
84,Classic Cinemas Paramount Theatre,N Schuyler Ave,Kankakee,Illinois,IL,60901,3830,51213101,51213101,783201,783201,Theatres-Movie,,,Classic Cinemas,High,Information,Branch,2500 - 4999,2500.0,4999.0,4,234000.0,Data Axle,f349381f9d8955eb3e35509366d1c92d,"Classic Cinemas Paramount Theatre, Kankakee, Illinois",41.12211500000001,-87.863967,1758493555740,Synapse54,1758493555740,Synapse54
85,Classic Cinemas Tivoli Theatre,Highland Ave,Downers Grove,Illinois,IL,60515,3626,51213101,51213101,783201,783201,Theatres-Movie,,,Classic Cinemas,Medium,Information,Branch,2500 - 4999,2500.0,4999.0,6,411000.0,Data Axle,29132f6bcaa6c68e9cf36b2cf0bed080,"Classic Cinemas Tivoli Theatre, Downers Grove, Illinois",41.79623999999997,-88.009254,1758493555740,Synapse54,1758493555740,Synapse54
86,Classic Cinemas Woodstock Theatre,Main St,Woodstock,Illinois,IL,60098,3213,51213101,51213101,783201,783201,Theatres-Movie,,,Classic Cinemas,High,Information,Branch,2500 - 4999,2500.0,4999.0,3,168000.0,Data Axle,ce6e506a0d73367a5bb270a9af74c115,"Classic Cinemas Woodstock Theatre, Woodstock, Illinois",42.31565499999999,-88.447735,1758493555740,Synapse54,1758493555740,Synapse54
87,Classic Cinemas York Theatre XQ,N York St,Elmhurst,Illinois,IL,60126,2806,51213101,51213101,783201,783201,Theatres-Movie,,,Classic Cinemas,Medium,Information,Branch,5000 - 9999,5000.0,9999.0,7,480000.0,Data Axle,a4dd1813bf6f0204693581fedf86f39c,"Classic Cinemas York Theatre XQ, Elmhurst, Illinois",41.901593,-87.940032,1758493555740,Synapse54,1758493555740,Synapse54
88,Clintonia Eagle Theater,Kelli Ct,Clinton,Illinois,IL,61727,2282,51213101,51213101,783201,783201,Theatres-Movie,,,,High,Information,Independent,2500 - 4999,2500.0,4999.0,3,134000.0,Data Axle,688a6c42453bbe05c6946d40264031a6,"Clintonia Eagle Theater, Clinton, Illinois",40.148329,-88.97964199999998,1758493555740,Synapse54,1758493555740,Synapse54
89,CMX Market Cinemas Old Orchard,Old Orchard Ctr,Skokie,Illinois,IL,60077,4720,51213101,51213101,783201,783201,Theatres-Movie,,,CMX Cinemas,Medium,Information,Branch,,,,48,2543000.0,Data Axle,be1fd40d2d9fcedf7dbbe09e2b60e4ba,"CMX Market Cinemas Old Orchard, Skokie, Illinois",42.058871,-87.747696,1758493555740,Synapse54,1758493555740,Synapse54
90,CMX Old Orchard Luxury,Old Orchard Ctr,Skokie,Illinois,IL,60077,1463,51213101,51213101,783201,783201,Theatres-Movie,,,CMX Cinemas,Medium,Information,Branch,,,,48,3298000.0,Data Axle,333dd68672def70e0f6f2787c6ad118c,"CMX Old Orchard Luxury, Skokie, Illinois",42.058871,-87.747696,1758493555740,Synapse54,1758493555740,Synapse54
91,Crescent Cinemas,W Madison St,Pontiac,Illinois,IL,61764,1705,51213101,51213101,783201,783201,Theatres-Movie,,,,High,Information,Independent,2500 - 4999,2500.0,4999.0,3,135000.0,Data Axle,78469efde11e999276d049e8c61fc1cd,"Crescent Cinemas, Pontiac, Illinois",40.88055400000001,-88.63141599999997,1758493555740,Synapse54,1758493555740,Synapse54
92,Crowd Theater NFP,N Kenmore Ave,Chicago,Illinois,IL,60613,4914,51213101,"51213101, 99999005",783201,"783201, 999966","Theatres-Movie, Federal Government Contractors",,,,High,Information,Independent,1500 - 2499,1500.0,2499.0,3,207000.0,Data Axle,297c6ddf49d486b67946e5483cad4d4e,"Crowd Theater NFP, Chicago, Illinois",41.960515999999984,-87.65663900000001,1758493555740,Synapse54,1758493555740,Synapse54
93,D 3D Cinema,Grove St,Evanston,Illinois,IL,60201,6512,51213101,51213101,783201,783201,Theatres-Movie,,,,High,Information,Independent,10000 - 19999,10000.0,19999.0,7,481000.0,Data Axle,5e2a8bb2c0c826a8b180e56194022ed5,"D 3D Cinema, Evanston, Illinois",42.04534799999998,-87.68443699999999,1758493555740,Synapse54,1758493555740,Synapse54
94,Des Plaines Theatre,Miner St,Des Plaines,Illinois,IL,60016,4603,51213101,"51213101, 71151004",783201,"783201, 792908","Theatres-Movie, Music & Live Entertainment",,,,High,Information,Independent,2500 - 4999,2500.0,4999.0,3,,Data Axle,218636d54ac86fb3a502746b55a14821,"Des Plaines Theatre, Des Plaines, Illinois",42.041798,-87.887161,1758493555740,Synapse54,1758493555740,Synapse54
95,Eagle Theater,W Main St,Robinson,Illinois,IL,62454,4846,51213101,"51213101, 99999005",783201,"783201, 999966","Theatres-Movie, Federal Government Contractors",,,,High,Information,Independent,5000 - 9999,5000.0,9999.0,8,336000.0,Data Axle,7365c62fd9f6f8eab74d79dd0148e409,"Eagle Theater, Robinson, Illinois",39.006825,-87.763481,1758493555740,Synapse54,1758493555740,Synapse54
96,"Eagle Theater Operating, LLC",Dannys Dr,Streator,Illinois,IL,61364,1181,51213101,"51213101, 99999005",783201,"783201, 999966","Theatres-Movie, Federal Government Contractors",,,,High,Information,Independent,,,,84,4320000.0,Data Axle,7c56f548191796cdf86baf8882ea282f,"Eagle Theater Operating, LLC, Streator, Illinois",41.14554000000001,-88.838995,1758493555740,Synapse54,1758493555740,Synapse54
97,Eisentraut Theatres,S Main St,Hillsboro,Illinois,IL,62049,1432,51213101,51213101,783201,783201,Theatres-Movie,,,,High,Information,Headquarters,,,,91,4165000.0,Data Axle,83439d8ba5cca51e619a494d27c14d76,"Eisentraut Theatres, Hillsboro, Illinois",39.15918299999999,-89.49370999999998,1758493555740,Synapse54,1758493555740,Synapse54
98,Emagine Theatres Frankfort,S La Grange Rd,Frankfort,Illinois,IL,60423,3105,51213101,51213101,783201,783201,Theatres-Movie,,,"Emagine Entertainment, Inc",High,Information,Branch,20000 - 39999,20000.0,39999.0,8,492000.0,Data Axle,8d3a268a9d322262cf0917e0fd2a7eac,"Emagine Theatres Frankfort, Frankfort, Illinois",41.52705499999999,-87.847482,1758493555740,Synapse54,1758493555740,Synapse54
99,Fairview Drive in,E State Highway 33,Willow Hill,Illinois,IL,62480,,51213202,51213202,783301,783301,Drive-In Motion Picture Theaters,,,,Low,Information,Independent,2500 - 4999,2500.0,4999.0,3,97000.0,Data Axle,ae6bc40aaf8d79c544dcb9ba6db3a03c,"Fairview Drive in, Willow Hill, Illinois",38.99631999999998,-88.02091,1758493555740,Synapse54,1758493555740,Synapse54
100,Fako Consulting,Maple Ave,Lisle,Illinois,IL,60532,4100,51213101,51213101,783201,783201,Theatres-Movie,,,,High,Information,Independent,1 - 1499,1.0,1499.0,3,206000.0,Data Axle,285c27a962cf444c83cb83ecb2382a68,"Fako Consulting, Lisle, Illinois",41.78627299999998,-88.079657,1758493555740,Synapse54,1758493555740,Synapse54
101,Forest Hill Drive Wings Inc,Newport Dr,Rolling Meadows,Illinois,IL,60008,3832,51213202,51213202,783301,783301,Drive-In Motion Picture Theaters,,,,High,Information,Independent,,,,2,74000.0,Data Axle,044357d007b368295074cb5bf30b115c,"Forest Hill Drive Wings Inc, Rolling Meadows, Illinois",42.059267999999996,-88.019402,1758493555740,Synapse54,1758493555740,Synapse54
102,Gene Siskel Film Center,N State St,Chicago,Illinois,IL,60601,3505,51213101,51213101,783201,783201,Theatres-Movie,,,,High,Information,Independent,2500 - 4999,2500.0,4999.0,7,481000.0,Data Axle,64c8f7c24e5e43d67f92414079c05a59,"Gene Siskel Film Center, Chicago, Illinois",41.884840999999994,-87.62828499999998,1758493555740,Synapse54,1758493555740,Synapse54
103,General Cinema,W 77 Th St,Chicago,Illinois,IL,60652,1140,51213101,51213101,783201,783201,Theatres-Movie,,,,Medium,Information,Independent,2500 - 4999,2500.0,4999.0,3,207000.0,Data Axle,05564e946bb33020d55d66eb4819f1d5,"General Cinema, Chicago, Illinois",41.752593999999995,-87.73312799999998,1758493555740,Synapse54,1758493555740,Synapse54
104,Golden Age Cinemas LLC,Connecticut Trl,Crystal Lake,Illinois,IL,60012,3128,51213101,51213101,783201,783201,Theatres-Movie,,,,High,Information,Independent,,,,62,3452000.0,Data Axle,46a4d4c213afbddbc854b8d2a8d6805e,"Golden Age Cinemas LLC, Crystal Lake, Illinois",42.26947499999999,-88.331534,1758493555740,Synapse54,1758493555740,Synapse54
105,Granite City Cinema,Niedringhaus Ave,Granite City,Illinois,IL,62040,4520,51213101,51213101,783201,783201,Theatres-Movie,,,,High,Information,Independent,2500 - 4999,2500.0,4999.0,3,185000.0,Data Axle,7861dced2a1677c33943c777e0bf957e,"Granite City Cinema, Granite City, Illinois",38.70170499999996,-90.151639,1758493555740,Synapse54,1758493555740,Synapse54
106,Harvest Moon Twin Drive in Movie Theatre,S Sangamon Ave,Gibson City,Illinois,IL,60936,,51213202,51213202,783301,783301,Drive-In Motion Picture Theaters,,,,Medium,Information,Independent,1500 - 2499,1500.0,2499.0,1,28000.0,Data Axle,3d657b48f8cae35861022146489eea5b,"Harvest Moon Twin Drive in Movie Theatre, Gibson City, Illinois",40.450825999999985,-88.375454,1758493555740,Synapse54,1758493555740,Synapse54
107,Heart Theatre,E Jefferson Ave,Effingham,Illinois,IL,62401,3457,51213101,51213101,783201,783201,Theatres-Movie,,,,High,Information,Independent,1500 - 2499,1500.0,2499.0,4,223000.0,Data Axle,44454849d5c0992c613e59d26eff298d,"Heart Theatre, Effingham, Illinois",39.12111099999999,-88.54108099999998,1758493555740,Synapse54,1758493555740,Synapse54
108,Hollywood Boulevard A Cinema Bar & Eatery,75th St,Woodridge,Illinois,IL,60517,2655,51213101,"51213101, 72251117",783201,"783201, 581208","Theatres-Movie, Restaurants",,,,High,Information,Independent,100000+,100000.0,,200,13695000.0,Data Axle,dadb11c59f579bf08d6a9860497a53e3,"Hollywood Boulevard A Cinema Bar & Eatery, Woodridge, Illinois",41.750491000000004,-88.01395399999997,1758493555740,Synapse54,1758493555740,Synapse54
109,Hollywood Palms Cinema,S Route 59,Naperville,Illinois,IL,60540,3924,51213101,"51213101, 72251117, 72241001",783201,"783201, 581208, 581301","Theatres-Movie, Restaurants, Bars",,,Star Cinema Grill,High,Information,Branch,100000+,100000.0,,150,10271000.0,Data Axle,dedc495e26ec86a7db149ae422bd74f3,"Hollywood Palms Cinema, Naperville, Illinois",41.76571399999998,-88.20236199999998,1758493555740,Synapse54,1758493555740,Synapse54
110,"Hooked Up Installs, Inc",E Fountainview Dr,Mundelein,Illinois,IL,60060,5605,51213101,51213101,783201,783201,Theatres-Movie,,,,High,Information,Independent,,,,83,,Data Axle,219c381897fe4495e1eaf0e2c8a97186,"Hooked Up Installs, Inc, Mundelein, Illinois",42.253395000000005,-87.994688,1758493555740,Synapse54,1758493555740,Synapse54
111,Illinois Theater-Eisentraut Theatre,N Mauvaisterre St,Jacksonville,Illinois,IL,62650,,51213101,51213101,783201,783201,Theatres-Movie,,,Eisentraut Theatres,Medium,Information,Branch,10000 - 19999,10000.0,19999.0,11,420000.0,Data Axle,1766bb9ceccdc43598d70adc2d028323,"Illinois Theater-Eisentraut Theatre, Jacksonville, Illinois",39.73528899999997,-90.228227,1758493555740,Synapse54,1758493555740,Synapse54
112,Inkwell Theater Inc,E 32nd St,Chicago,Illinois,IL,60616,4216,51213101,"51213101, 81331908",783201,"783201, 839998","Theatres-Movie, Non-Profit Organizations",,,,High,Information,Independent,,,,70,4810000.0,Data Axle,fdf8904ce91f20a6334081b08e4c153c,"Inkwell Theater Inc, Chicago, Illinois",41.836403999999995,-87.612826,1758493555740,Synapse54,1758493555740,Synapse54
113,"Jad Imports, Inc",Brentwood Dr,Springfield,Illinois,IL,62704,4121,51213101,51213101,783201,783201,Theatres-Movie,,,,High,Information,Independent,,,,37,2000000.0,Data Axle,e646990376d3042e17f29ac14f0d5ec7,"Jad Imports, Inc, Springfield, Illinois",39.772178,-89.69196700000002,1758493555740,Synapse54,1758493555740,Synapse54
114,"Kerasotes Showplace Theatres, LLC",W Lake St,Chicago,Illinois,IL,60661,1308,51213101,"51213101, 99999005",783201,"783201, 999966","Theatres-Movie, Federal Government Contractors",,,,High,Information,Headquarters,20000 - 39999,20000.0,39999.0,13,894000.0,Data Axle,8278a8c5a099cf074b58b81e39fe10aa,"Kerasotes Showplace Theatres, LLC, Chicago, Illinois",41.885384,-87.64449700000002,1758493555740,Synapse54,1758493555740,Synapse54
115,Lakeshore Drive in,S Lynn White Dr,Chicago,Illinois,IL,60605,,51213202,51213202,783301,783301,Drive-In Motion Picture Theaters,,,,Medium,Information,Independent,,,,4,147000.0,Data Axle,5f1a3aa96aeddaf848b9d9e1e75252e6,"Lakeshore Drive in, Chicago, Illinois",41.864066999999984,-87.609148,1758493555740,Synapse54,1758493555740,Synapse54
116,Landmark at The Glen,Tower Dr,Glenview,Illinois,IL,60026,7783,51213101,51213101,783201,783201,Theatres-Movie,,,,High,Information,Independent,2500 - 4999,2500.0,4999.0,3,207000.0,Data Axle,c95029dc27252dcbbc8944df4964f006,"Landmark at The Glen, Glenview, Illinois",42.088287,-87.82418400000002,1758493555740,Synapse54,1758493555740,Synapse54
117,Landmark Cinemas,N Dries Ln,Peoria,Illinois,IL,61604,1268,51213101,51213101,783201,783201,Theatres-Movie,,,,High,Information,Independent,10000 - 19999,10000.0,19999.0,5,303000.0,Data Axle,40dc6571afee0a3fa98930bba888e2bb,"Landmark Cinemas, Peoria, Illinois",40.727459,-89.617767,1758493555740,Synapse54,1758493555740,Synapse54
118,Landmark's Century Centre Cinema,N Clark St,Chicago,Illinois,IL,60657,5775,51213101,51213101,783201,783201,Theatres-Movie,,,,High,Information,Independent,40000 - 99999,40000.0,99999.0,19,1306000.0,Data Axle,db81f3abab14de13804687a3bf25f2ca,"Landmark's Century Centre Cinema, Chicago, Illinois",41.933592,-87.645938,1758493555740,Synapse54,1758493555740,Synapse54
119,Mar Theatre,S Main St,Wilmington,Illinois,IL,60481,1347,51213101,51213101,783201,783201,Theatres-Movie,,,,High,Information,Independent,2500 - 4999,2500.0,4999.0,10,615000.0,Data Axle,001a3dbd97accd78da1034e07e0bfc79,"Mar Theatre, Wilmington, Illinois",41.307597999999984,-88.14508999999997,1758493555740,Synapse54,1758493555740,Synapse54
120,Marcus Addison Cinema,W Lake St,Addison,Illinois,IL,60101,1888,51213101,"51213101, 72241003",783201,"783201, 581303","Theatres-Movie, Cocktail Lounges",,,Marcus Theatres Corporation,High,Information,Branch,2500 - 4999,2500.0,4999.0,5,343000.0,Data Axle,90584ce234813aaaeb808b499654547a,"Marcus Addison Cinema, Addison, Illinois",41.946109,-88.02655200000001,1758493555740,Synapse54,1758493555740,Synapse54
121,Marcus Bloomington Cinema + IMAX,Wylie Dr,Bloomington,Illinois,IL,61705,9312,51213101,51213101,783201,783201,Theatres-Movie,,,Marcus Theatres Corporation,High,Information,Branch,40000 - 99999,40000.0,99999.0,90,5468000.0,Data Axle,207a2fc041b131c69a54be8a4c53d9bd,"Marcus Bloomington Cinema + IMAX, Bloomington, Illinois",40.49267599999998,-89.03437099999998,1758493555740,Synapse54,1758493555740,Synapse54
122,Marcus Chicago Heights Cinema,Hilltop Ave,Chicago Heights,Illinois,IL,60411,2382,51213101,51213101,783201,783201,Theatres-Movie,,,Marcus Theatres Corporation,High,Information,Branch,20000 - 39999,20000.0,39999.0,18,1237000.0,Data Axle,f7b1d1957d9dc41a405c6e51ae3dd760,"Marcus Chicago Heights Cinema, Chicago Heights, Illinois",41.50825600000001,-87.668503,1758493555740,Synapse54,1758493555740,Synapse54
123,Marcus Country Club Hills Cinema,167 Th St,Country Club Hills,Illinois,IL,60478,2017,51213101,51213101,783201,783201,Theatres-Movie,,,Marcus Theatres Corporation,High,Information,Branch,100000+,100000.0,,54,3711000.0,Data Axle,c245c7d9b9595c0602fc25db8b90e80b,"Marcus Country Club Hills Cinema, Country Club Hills, Illinois",41.58379,-87.721777,1758493555740,Synapse54,1758493555740,Synapse54
124,Marcus Elgin Cinema,S Randall Rd,Elgin,Illinois,IL,60123,5551,51213101,51213101,783201,783201,Theatres-Movie,,,Marcus Theatres Corporation,High,Information,Branch,40000 - 99999,40000.0,99999.0,26,1590000.0,Data Axle,524094716688b3b0869bf82e7a9bc7d7,"Marcus Elgin Cinema, Elgin, Illinois",42.029617999999985,-88.33581900000001,1758493555740,Synapse54,1758493555740,Synapse54
125,Marcus Gurnee Mills Cinema,Grand Ave,Gurnee,Illinois,IL,60031,1650,51213101,"51213101, 72241003",783201,"783201, 581303","Theatres-Movie, Cocktail Lounges",,,Marcus Theatres Corporation,High,Information,Branch,100000+,100000.0,,36,2634000.0,Data Axle,4b6f3b30332e96ac2dcb403a227e155c,"Marcus Gurnee Mills Cinema, Gurnee, Illinois",42.391267999999975,-87.96022899999998,1758493555740,Synapse54,1758493555740,Synapse54
126,Marcus O'Fallon Cinema,Central Park Dr,O Fallon,Illinois,IL,62269,1768,51213101,"51213101, 72241003",783201,"783201, 581303","Theatres-Movie, Cocktail Lounges",,,Marcus Theatres Corporation,High,Information,Branch,20000 - 39999,20000.0,39999.0,13,716000.0,Data Axle,b67332991dc0a3430388ae286b2ac36e,"Marcus O'Fallon Cinema, O Fallon, Illinois",38.59064099999999,-89.94496100000002,1758493555740,Synapse54,1758493555740,Synapse54
127,Marcus Orland Park Cinema,S La Grange Rd,Orland Park,Illinois,IL,60467,5514,51213101,"51213101, 72241003",783201,"783201, 581303","Theatres-Movie, Cocktail Lounges",,,Marcus Theatres Corporation,High,Information,Branch,20000 - 39999,20000.0,39999.0,12,825000.0,Data Axle,f3d9125304406b36b18e6d74258aa45a,"Marcus Orland Park Cinema, Orland Park, Illinois",41.59192400000001,-87.853925,1758493555740,Synapse54,1758493555740,Synapse54
128,Marvel Theatre-Eisentraut Theatres,W Main St,Carlinville,Illinois,IL,62626,1731,51213101,51213101,783201,783201,Theatres-Movie,,,Eisentraut Theatres,High,Information,Branch,2500 - 4999,2500.0,4999.0,3,119000.0,Data Axle,f06ba16b6d283c1eebb92deeeb9e8448,"Marvel Theatre-Eisentraut Theatres, Carlinville, Illinois",39.279990000000005,-89.88401499999999,1758493555740,Synapse54,1758493555740,Synapse54
129,McHenry Downtown Theatre,N Green St,McHenry,Illinois,IL,60050,4363,51213101,"51213101, 99999005",783201,"783201, 999966","Theatres-Movie, Federal Government Contractors",,,,High,Information,Independent,2500 - 4999,2500.0,4999.0,4,223000.0,Data Axle,5943023095505a0e15ff2d9c6f4c870c,"McHenry Downtown Theatre, McHenry, Illinois",42.34410799999999,-88.26664500000001,1758493555740,Synapse54,1758493555740,Synapse54
130,Midway Drive-in Theatre,Palmyra Rd,Sterling,Illinois,IL,61081,9623,51213202,51213202,783301,783301,Drive-In Motion Picture Theaters,,,,High,Information,Independent,1500 - 2499,1500.0,2499.0,2,67000.0,Data Axle,3565ce6a7a6b22f45e9161f77d53e57a,"Midway Drive-in Theatre, Sterling, Illinois",41.838514999999994,-89.613329,1758493555740,Synapse54,1758493555740,Synapse54
131,Morris Theater & Banquet,E Jefferson St,Morris,Illinois,IL,60450,2102,51213101,51213101,783201,783201,Theatres-Movie,,,,High,Information,Independent,,,,68,4205000.0,Data Axle,e837dac362b397701723b72f4d370ca9,"Morris Theater & Banquet, Morris, Illinois",41.359466,-88.423122,1758493555740,Synapse54,1758493555740,Synapse54
132,Murder Mysteries Gangster Style,Willow Springs Rd,Countryside,Illinois,IL,60525,4904,51213101,51213101,783201,783201,Theatres-Movie,,,,High,Information,Independent,,,,80,5497000.0,Data Axle,2fc430d212230a641676d2856a2c10ed,"Murder Mysteries Gangster Style, Countryside, Illinois",41.75996699999998,-87.886491,1758493555740,Synapse54,1758493555740,Synapse54
133,Music Box Theatre,N Southport Ave,Chicago,Illinois,IL,60613,3718,51213101,51213101,783201,783201,Theatres-Movie,,,,High,Information,Independent,10000 - 19999,10000.0,19999.0,15,1031000.0,Data Axle,613d1172c5b3102cd9887a9d1a8f082f,"Music Box Theatre, Chicago, Illinois",41.949646999999985,-87.663731,1758493555740,Synapse54,1758493555740,Synapse54
134,Music Evolution,70th Ct,Tinley Park,Illinois,IL,60477,3809,51213101,51213101,783201,783201,Theatres-Movie,,,,High,Information,Independent,,,,50,3436000.0,Data Axle,4262d43519a0ae917692863fd966b674,"Music Evolution, Tinley Park, Illinois",41.57217099999998,-87.789651,1758493555740,Synapse54,1758493555740,Synapse54
135,NCG Cinema Alton,Alton St,Alton,Illinois,IL,62002,2400,51213101,51213101,783201,783201,Theatres-Movie,,,Neighborhood Cinema Group,Low,Information,Branch,,,,41,2525000.0,Data Axle,503f750c1a1e65dc0525cffadd5687cc,"NCG Cinema Alton, Alton, Illinois",38.88968,-90.18224,1758493555740,Synapse54,1758493555740,Synapse54
136,NCG Cinema Yorkville,N Bridge St,Yorkville,Illinois,IL,60560,1807,51213101,51213101,783201,783201,Theatres-Movie,,,Neighborhood Cinema Group,High,Information,Branch,1500 - 2499,1500.0,2499.0,3,212000.0,Data Axle,97a7b7c584ea2f4c33489de217e210d8,"NCG Cinema Yorkville, Yorkville, Illinois",41.65906299999998,-88.44374400000001,1758493555740,Synapse54,1758493555740,Synapse54
137,Oakton Drive in Corp,Rand Rd,Des Plaines,Illinois,IL,60016,2355,51213202,51213202,783301,783301,Drive-In Motion Picture Theaters,,,,High,Information,Independent,1500 - 2499,1500.0,2499.0,2,74000.0,Data Axle,c0b4b4344b7bdff913e36c1def82497f,"Oakton Drive in Corp, Des Plaines, Illinois",42.056710999999986,-87.901045,1758493555740,Synapse54,1758493555740,Synapse54
138,Omnimax Theater,S Lake Shore Dr,Chicago,Illinois,IL,60637,2003,51213101,51213101,783201,783201,Theatres-Movie,,,"Museum of Science & Industry, Chicago",High,Information,Branch,100000+,100000.0,,600,41225000.0,Data Axle,5c69aead91cbd242d118c557bfb0ef76,"Omnimax Theater, Chicago, Illinois",41.790665999999995,-87.582654,1758493555740,Synapse54,1758493555740,Synapse54
139,Onarga Theatre,W Seminary Ave,Onarga,Illinois,IL,60955,,51213101,51213101,783201,783201,Theatres-Movie,,,,High,Information,Independent,2500 - 4999,2500.0,4999.0,2,93000.0,Data Axle,8465951f4cc7f33c2fd7139ca336b49d,"Onarga Theatre, Onarga, Illinois",40.714783999999995,-88.007423,1758493555740,Synapse54,1758493555740,Synapse54
140,Oxford Houses of Illinois,S Harrison Ave,Aurora,Illinois,IL,60506,4954,51213101,51213101,783201,783201,Theatres-Movie,,,,High,Information,Independent,,,,61,2630000.0,Data Axle,cc45e2eae5a1be427cbd75bd1e2e98b2,"Oxford Houses of Illinois, Aurora, Illinois",41.75792500000002,-88.33831099999999,1758493555740,Synapse54,1758493555740,Synapse54
141,Paris Theatre,N Central Ave,Paris,Illinois,IL,61944,1704,51213101,51213101,783201,783201,Theatres-Movie,,,,High,Information,Independent,2500 - 4999,2500.0,4999.0,3,,Data Axle,cef72d7b8364ed151da790df1f1946ed,"Paris Theatre, Paris, Illinois",39.611856999999965,-87.696666,1758493555740,Synapse54,1758493555740,Synapse54
142,Parkway Pointe 8 Theatres,Lindbergh Blvd,Springfield,Illinois,IL,62704,6519,51213101,51213101,783201,783201,Theatres-Movie,,,,High,Information,Independent,2500 - 4999,2500.0,4999.0,3,163000.0,Data Axle,afb3233629afd7194e65376a25c4a6e9,"Parkway Pointe 8 Theatres, Springfield, Illinois",39.75422299999998,-89.71160999999996,1758493555740,Synapse54,1758493555740,Synapse54
143,Peoria Forrest Hill Development,N Dries Ln,Peoria,Illinois,IL,61604,1268,51213101,"51213101, 71119007, 71394015, 99999005",783201,"783201, 792905, 799701, 999966","Theatres-Movie, Entertainment Bureaus, Recreation Centers, Federal Government Contractors",,,,High,Information,Independent,20000 - 39999,20000.0,39999.0,50,3027000.0,Data Axle,f17e09683f178d0500c740694bc25851,"Peoria Forrest Hill Development, Peoria, Illinois",40.727459,-89.617767,1758493555740,Synapse54,1758493555740,Synapse54
144,Pickwick Theatre,S Prospect Ave,Park Ridge,Illinois,IL,60068,4155,51213101,"51213101, 56159908",783201,"783201, 799973","Theatres-Movie, Ticket Service",,,,High,Information,Independent,1 - 1499,1.0,1499.0,3,207000.0,Data Axle,092321ec2157cf5a80160c5116239e6b,"Pickwick Theatre, Park Ridge, Illinois",42.01052299999998,-87.82918100000002,1758493555740,Synapse54,1758493555740,Synapse54
145,Picture Show at Bloomingdale Court,W Army Trail Rd,Bloomingdale,Illinois,IL,60108,2680,51213101,51213101,783201,783201,Theatres-Movie,,,Picture Show Entertainment,Medium,Information,Branch,100000+,100000.0,,20,1370000.0,Data Axle,78c73f3be57106080e2f454baca39218,"Picture Show at Bloomingdale Court, Bloomingdale, Illinois",41.93900999999999,-88.10694400000001,1758493555740,Synapse54,1758493555740,Synapse54
146,Princess Theatre,E Center St,Le Roy,Illinois,IL,61752,1722,51213101,51213101,783201,783201,Theatres-Movie,,,,High,Information,Independent,2500 - 4999,2500.0,4999.0,3,,Data Axle,d5efb1485e1428d0b292c85e13dbd132,"Princess Theatre, Le Roy, Illinois",40.34731699999998,-88.75914499999999,1758493555740,Synapse54,1758493555740,Synapse54
147,Public Theater,N State Pkwy,Chicago,Illinois,IL,60610,2334,51213101,51213101,783201,783201,Theatres-Movie,,,,High,Information,Independent,5000 - 9999,5000.0,9999.0,4,,Data Axle,db8b32c15ceb6f076751fb2e7e8d127b,"Public Theater, Chicago, Illinois",41.906009000000005,-87.628347,1758493555740,Synapse54,1758493555740,Synapse54
148,Red Theater Chicago NFP,N Winchester Ave,Chicago,Illinois,IL,60640,1038,51213101,51213101,783201,783201,Theatres-Movie,,,,High,Information,Independent,2500 - 4999,2500.0,4999.0,4,275000.0,Data Axle,4db2d7aecfd32331e2ed7b55d7d83f00,"Red Theater Chicago NFP, Chicago, Illinois",41.97944399999999,-87.677785,1758493555740,Synapse54,1758493555740,Synapse54
149,Regal Bolingbrook,W Boughton Rd,Bolingbrook,Illinois,IL,60440,1509,51213101,51213101,783201,783201,Theatres-Movie,,,Regal Cinemas Inc,High,Information,Branch,40000 - 99999,40000.0,99999.0,27,,Data Axle,43086a06cf78b33bce37761fa33f7f0d,"Regal Bolingbrook, Bolingbrook, Illinois",41.70121900000001,-88.122433,1758493555740,Synapse54,1758493555740,Synapse54
150,Regal City North,N Western Ave,Chicago,Illinois,IL,60647,2027,51213101,51213101,783201,783201,Theatres-Movie,,,Regal Cinemas Inc,High,Information,Branch,20000 - 39999,20000.0,39999.0,16,1100000.0,Data Axle,852037d42a25e5bd082d62ee62f10b96,"Regal City North, Chicago, Illinois",41.929267,-87.68827300000001,1758493555740,Synapse54,1758493555740,Synapse54
151,Regal Crystal Lake Showplace,Northwest Hwy,Crystal Lake,Illinois,IL,60014,7355,51213101,51213101,783201,783201,Theatres-Movie,,,Regal Cinemas Inc,High,Information,Branch,2500 - 4999,2500.0,4999.0,4,941000.0,Data Axle,5b89c141b63321e669cdf5a2c7437a33,"Regal Crystal Lake Showplace, Crystal Lake, Illinois",42.22770999999999,-88.294501,1758493555740,Synapse54,1758493555740,Synapse54
152,Regal Lake Zurich,S Rand Rd,Lake Zurich,Illinois,IL,60047,3414,51213101,51213101,783201,783201,Theatres-Movie,,,Regal Cinemas Inc,High,Information,Branch,20000 - 39999,20000.0,39999.0,14,1025000.0,Data Axle,415674fc17c03d0b059b617d4fe571d2,"Regal Lake Zurich, Lake Zurich, Illinois",42.185158999999985,-88.096263,1758493555740,Synapse54,1758493555740,Synapse54
153,Regal Webster Place,W Webster Ave,Chicago,Illinois,IL,60614,3049,51213101,51213101,783201,783201,Theatres-Movie,,,Regal Cinemas Inc,High,Information,Branch,40000 - 99999,40000.0,99999.0,50,3436000.0,Data Axle,b3363b4d75e2f3e01a6bfe8896fcbf2b,"Regal Webster Place, Chicago, Illinois",41.921465000000005,-87.66597699999998,1758493555740,Synapse54,1758493555740,Synapse54
154,Rialto 6 Cinemas,E Jackson St,Macomb,Illinois,IL,61455,2527,51213101,51213101,783201,783201,Theatres-Movie,,,,High,Information,Independent,2500 - 4999,2500.0,4999.0,3,134000.0,Data Axle,ad565952cfaaadf7253bd9087cd6229a,"Rialto 6 Cinemas, Macomb, Illinois",40.456757,-90.651342,1758493555740,Synapse54,1758493555740,Synapse54
155,RMC Stadium Cinemas,S Main St,South Jacksonville,Illinois,IL,62650,,51213101,51213101,783201,783201,Theatres-Movie,,,,Medium,Information,Independent,2500 - 4999,2500.0,4999.0,3,115000.0,Data Axle,0eef7dc17b691b18e03397bd64d6b887,"RMC Stadium Cinemas, South Jacksonville, Illinois",39.697741,-90.22934500000001,1758493555740,Synapse54,1758493555740,Synapse54
156,Roseland Theatre-Eisentraut Theatres,S Locust St,Pana,Illinois,IL,62557,1429,51213101,51213101,783201,783201,Theatres-Movie,,,Eisentraut Theatres,Medium,Information,Branch,1500 - 2499,1500.0,2499.0,5,222000.0,Data Axle,2a5d64a90bdff418915fdeb47e78c062,"Roseland Theatre-Eisentraut Theatres, Pana, Illinois",39.38858499999999,-89.082095,1758493555740,Synapse54,1758493555740,Synapse54
157,Route 66 Drive in Theater,Knights Recreation Dr,Springfield,Illinois,IL,62711,7348,51213202,51213202,783301,783301,Drive-In Motion Picture Theaters,,,,High,Information,Independent,5000 - 9999,5000.0,9999.0,6,152000.0,Data Axle,1511debe8a4109804db0e02613b39806,"Route 66 Drive in Theater, Springfield, Illinois",39.74006200000001,-89.682862,1758493555740,Synapse54,1758493555740,Synapse54
158,Roxy Cinemas,La Salle St,Ottawa,Illinois,IL,61350,2065,51213101,51213101,783201,783201,Theatres-Movie,,,,High,Information,Independent,2500 - 4999,2500.0,4999.0,4,206000.0,Data Axle,fc0f727b8d97f2064393ab135b741ce7,"Roxy Cinemas, Ottawa, Illinois",41.34866599999998,-88.84306799999999,1758493555740,Synapse54,1758493555740,Synapse54
159,Savanna Times Theater,Main St,Savanna,Illinois,IL,61074,1607,51213101,51213101,783201,783201,Theatres-Movie,,,,High,Information,Independent,2500 - 4999,2500.0,4999.0,3,130000.0,Data Axle,99f584688ecf7046fe616250de948542,"Savanna Times Theater, Savanna, Illinois",42.09313699999998,-90.15596,1758493555740,Synapse54,1758493555740,Synapse54
160,Savoy 16+Imax-Phoenix Theatres,Burwash Ave,Savoy,Illinois,IL,61874,9584,51213101,51213101,783201,783201,Theatres-Movie,,,"Phoenix Theatres Entertainment, LLC",High,Information,Branch,2500 - 4999,2500.0,4999.0,4,249000.0,Data Axle,827869455e778db045f7a20a4aad7021,"Savoy 16+Imax-Phoenix Theatres, Savoy, Illinois",40.07287800000001,-88.252181,1758493555740,Synapse54,1758493555740,Synapse54
161,Showplace Cinemas Harrisburg 9,N Commercial St,Harrisburg,Illinois,IL,62946,3335,51213101,51213101,783201,783201,Theatres-Movie,,,Showplace Cinemas,Medium,Information,Branch,5000 - 9999,5000.0,9999.0,4,184000.0,Data Axle,0c5463116b49c631e0b8d5cfc5b25b65,"Showplace Cinemas Harrisburg 9, Harrisburg, Illinois",37.74425,-88.525477,1758493555740,Synapse54,1758493555740,Synapse54
162,Showplace Icon Theatre & Kitchen at Roosevelt Collection,S Delano Ct E,Chicago,Illinois,IL,60605,3452,51213101,"51213101, 72251117, 72241001",783201,"783201, 581208, 581301","Theatres-Movie, Restaurants, Bars",,,"Kerasotes Showplace Theatres, LLC",High,Information,Branch,2500 - 4999,2500.0,4999.0,5,344000.0,Data Axle,813fd533e8185008ceb71bcb611f9835,"Showplace Icon Theatre & Kitchen at Roosevelt Collection, Chicago, Illinois",41.868470999999985,-87.63313000000001,1758493555740,Synapse54,1758493555740,Synapse54
163,Showtime Cinema,N Market St,Sparta,Illinois,IL,62286,,51213101,51213101,783201,783201,Theatres-Movie,,,,Medium,Information,Independent,2500 - 4999,2500.0,4999.0,3,116000.0,Data Axle,830fccd15defccfd22334baa7c157014,"Showtime Cinema, Sparta, Illinois",38.13888199999999,-89.703556,1758493555740,Synapse54,1758493555740,Synapse54
164,Skyview Drive-in,N Old Route 66,Litchfield,Illinois,IL,62056,1074,51213202,51213202,783301,783301,Drive-In Motion Picture Theaters,,,,High,Information,Independent,1500 - 2499,1500.0,2499.0,2,65000.0,Data Axle,512d21fc8ef97fc008fce8fce478f8f7,"Skyview Drive-in, Litchfield, Illinois",39.185349,-89.662826,1758493555740,Synapse54,1758493555740,Synapse54
165,Skyview Drive-in,N Belt W,Belleville,Illinois,IL,62226,4616,51213202,51213202,783301,783301,Drive-In Motion Picture Theaters,,,,High,Information,Independent,2500 - 4999,2500.0,4999.0,4,155000.0,Data Axle,ff661ee104140d4231b090ffd6283fa5,"Skyview Drive-in, Belleville, Illinois",38.54007199999999,-90.032309,1758493555740,Synapse54,1758493555740,Synapse54
166,Star Cinema Grill Bolingbrok,E Boughton Rd,Bolingbrook,Illinois,IL,60440,2497,51213101,"51213101, 72251117",783201,"783201, 581208","Theatres-Movie, Restaurants",,,Star Cinema Grill,High,Information,Branch,,,,47,2890000.0,Data Axle,d5f2489c6f2cce8cdf0c666fc2a68fee,"Star Cinema Grill Bolingbrok, Bolingbrook, Illinois",41.718602999999995,-88.042207,1758493555740,Synapse54,1758493555740,Synapse54
167,Star Cinema Grill South Barrington,W Higgins Rd,South Barrington,Illinois,IL,60010,9408,51213101,"51213101, 72251117",783201,"783201, 581208","Theatres-Movie, Restaurants",,,Star Cinema Grill,High,Information,Branch,,,,34,2337000.0,Data Axle,1d5ec17d926f79231655f494174473de,"Star Cinema Grill South Barrington, South Barrington, Illinois",42.07287099999999,-88.18079699999997,1758493555740,Synapse54,1758493555740,Synapse54
168,Star Max Cinemas,Mattes Ave,Vandalia,Illinois,IL,62471,2063,51213101,"51213101, 99999005",783201,"783201, 999966","Theatres-Movie, Federal Government Contractors",,,,High,Information,Independent,2500 - 4999,2500.0,4999.0,4,123000.0,Data Axle,dbef42bf4c4c7182197b8819d04a28e9,"Star Max Cinemas, Vandalia, Illinois",38.96503000000001,-89.13560200000002,1758493555740,Synapse54,1758493555740,Synapse54
169,State Theater,W Elm St,Nashville,Illinois,IL,62263,1137,51213101,51213101,783201,783201,Theatres-Movie,,,,High,Information,Independent,2500 - 4999,2500.0,4999.0,2,112000.0,Data Axle,21e2b9ccf1936ea38d3b0b63537a57ee,"State Theater, Nashville, Illinois",38.34480799999998,-89.383561,1758493555740,Synapse54,1758493555740,Synapse54
170,Sterling Theater,Locust St,Sterling,Illinois,IL,61081,3541,51213101,51213101,783201,783201,Theatres-Movie,,,,High,Information,Independent,2500 - 4999,2500.0,4999.0,6,284000.0,Data Axle,ff4c18e88d6d8c2418e32746716a4a85,"Sterling Theater, Sterling, Illinois",41.78913699999998,-89.69625600000002,1758493555740,Synapse54,1758493555740,Synapse54
171,Sycamore State Theatre,W State St,Sycamore,Illinois,IL,60178,1411,51213101,51213101,783201,783201,Theatres-Movie,,,,High,Information,Independent,2500 - 4999,2500.0,4999.0,5,255000.0,Data Axle,449c46bb7d0d9c4b4266a357b1c15b6f,"Sycamore State Theatre, Sycamore, Illinois",41.988768,-88.68926799999998,1758493555740,Synapse54,1758493555740,Synapse54
172,Taylorville Cinema-Eisentraut Theatres,W Main Cross St,Taylorville,Illinois,IL,62568,2249,51213101,51213101,783201,783201,Theatres-Movie,,,Eisentraut Theatres,High,Information,Branch,2500 - 4999,2500.0,4999.0,3,133000.0,Data Axle,83a6e0ae9a3656ad33cef5e7c582cd1d,"Taylorville Cinema-Eisentraut Theatres, Taylorville, Illinois",39.549609,-89.295812,1758493555740,Synapse54,1758493555740,Synapse54
173,The Curious Theatre Branch,W Estes Ave,Chicago,Illinois,IL,60626,2610,51213101,51213101,783201,783201,Theatres-Movie,,,,High,Information,Independent,2500 - 4999,2500.0,4999.0,3,138000.0,Data Axle,e0769a7fc7eb5abfc366a672225c87aa,"The Curious Theatre Branch, Chicago, Illinois",42.01115699999999,-87.66899699999998,1758493555740,Synapse54,1758493555740,Synapse54
174,The Davis Theater,N Lincoln Ave,Chicago,Illinois,IL,60625,2008,51213101,51213101,783201,783201,Theatres-Movie,,,,High,Information,Independent,5000 - 9999,5000.0,9999.0,6,413000.0,Data Axle,21dc551fe0622b9e0dde597f3f496daf,"The Davis Theater, Chicago, Illinois",41.96543099999999,-87.686837,1758493555740,Synapse54,1758493555740,Synapse54
175,The Harper Theatre,S Harper Ave,Chicago,Illinois,IL,60615,4114,51213101,"51213101, 99999005",783201,"783201, 999966","Theatres-Movie, Federal Government Contractors",,,,High,Information,Independent,5000 - 9999,5000.0,9999.0,7,481000.0,Data Axle,3f28f189914bca0062b0bc836a199d07,"The Harper Theatre, Chicago, Illinois",41.79981099999997,-87.58950000000002,1758493555740,Synapse54,1758493555740,Synapse54
176,The Logan Theatre,N Milwaukee Ave,Chicago,Illinois,IL,60647,1610,51213101,"51213101, 71111007, 99999005",783201,"783201, 792207, 999966","Theatres-Movie, Theatres-Live, Federal Government Contractors",,,,High,Information,Independent,10000 - 19999,10000.0,19999.0,12,825000.0,Data Axle,94b4c66147b4b40b90360687a1fd0710,"The Logan Theatre, Chicago, Illinois",41.929657000000006,-87.70890700000001,1758493555740,Synapse54,1758493555740,Synapse54
177,The McHenry Outdoor-Golden Age Cinemas Drive-in,N Chapel Hill Rd,McHenry,Illinois,IL,60050,,51213202,51213202,783301,783301,Drive-In Motion Picture Theaters,,,,Low,Information,Independent,2500 - 4999,2500.0,4999.0,3,110000.0,Data Axle,d4d1b9523027cb896509b4a57cbb0398,"The McHenry Outdoor-Golden Age Cinemas Drive-in, McHenry, Illinois",42.342695000000006,-88.271795,1758493555740,Synapse54,1758493555740,Synapse54
178,The New 400 Theaters,N Sheridan Rd,Chicago,Illinois,IL,60626,4405,51213101,51213101,783201,783201,Theatres-Movie,,,,High,Information,Independent,1 - 1499,1.0,1499.0,3,207000.0,Data Axle,f1a2159973e2a31c5a789643b2e78aab,"The New 400 Theaters, Chicago, Illinois",42.00485399999999,-87.66131899999998,1758493555740,Synapse54,1758493555740,Synapse54
179,The Palace Theater,W Main St,Elmwood,Illinois,IL,61529,,51213101,"51213101, 99999005",783201,"783201, 999966","Theatres-Movie, Federal Government Contractors",,,,High,Information,Independent,1500 - 2499,1500.0,2499.0,4,243000.0,Data Axle,ee98871e30e894d1717f4bda8ed89d93,"The Palace Theater, Elmwood, Illinois",40.777784999999994,-89.967275,1758493555740,Synapse54,1758493555740,Synapse54
180,The Silent Film Society of Chicago,N Milwaukee Ave,Chicago,Illinois,IL,60641,3899,51213101,"51213101, 81331908, 99999005, 81341005",783201,"783201, 839998, 999966, 864106","Theatres-Movie, Non-Profit Organizations, Federal Government Contractors, Educational Associations",,,,High,Information,Independent,2500 - 4999,2500.0,4999.0,3,207000.0,Data Axle,df79b90febe1097f61c494d1e01feb08,"The Silent Film Society of Chicago, Chicago, Illinois",41.95429099999999,-87.74915999999999,1758493555740,Synapse54,1758493555740,Synapse54
181,The Vic Theatre,N Sheffield Ave,Chicago,Illinois,IL,60657,4416,51213101,51213101,783201,783201,Theatres-Movie,,,,Low,Information,Independent,40000 - 99999,40000.0,99999.0,70,4810000.0,Data Axle,34a0a95ae54cb36e1a7c307ced6c6fed,"The Vic Theatre, Chicago, Illinois",41.939510000000006,-87.65400999999997,1758493555740,Synapse54,1758493555740,Synapse54
182,The Wilmette Theatre,Central Ave,Wilmette,Illinois,IL,60091,2684,51213101,"51213101, 71141011, 99999005",783201,"783201, 792210, 999966","Theatres-Movie, Theatrical Agencies, Federal Government Contractors",,,,Low,Information,Independent,5000 - 9999,5000.0,9999.0,6,413000.0,Data Axle,01273cb5878f093b51994606befa2b80,"The Wilmette Theatre, Wilmette, Illinois",42.07674000000001,-87.70598,1758493555740,Synapse54,1758493555740,Synapse54
183,Town Theatre,N 2nd St,Chillicothe,Illinois,IL,61523,1625,51213101,51213101,783201,783201,Theatres-Movie,,,,High,Information,Independent,2500 - 4999,2500.0,4999.0,3,182000.0,Data Axle,50e2f76d13614346c1aa35494be592f3,"Town Theatre, Chillicothe, Illinois",40.91767699999999,-89.48552100000002,1758493555740,Synapse54,1758493555740,Synapse54
184,Verismo Opera Theater,Washington Blvd,Oak Park,Illinois,IL,60302,4055,51213101,51213101,783201,783201,Theatres-Movie,,,,High,Information,Independent,1500 - 2499,1500.0,2499.0,1,69000.0,Data Axle,52a8ffe0811256a2c076b5e07d0bb29e,"Verismo Opera Theater, Oak Park, Illinois",41.881983,-87.78755499999997,1758493555740,Synapse54,1758493555740,Synapse54
185,Village Mall Cinemas,Hoffman Dr,Effingham,Illinois,IL,62401,,51213101,"51213101, 44921058",783201,"783201, 573121","Theatres-Movie, Home Theatre Systems",,,,Medium,Information,Independent,10000 - 19999,10000.0,19999.0,5,,Data Axle,c0587f8737785db5e53bb24837157ecf,"Village Mall Cinemas, Effingham, Illinois",39.09953699999998,-88.543912,1758493555740,Synapse54,1758493555740,Synapse54
186,VIP Morton Cinemas,S Main St,Morton,Illinois,IL,61550,2917,51213101,51213101,783201,783201,Theatres-Movie,,,,High,Information,Independent,20000 - 39999,20000.0,39999.0,9,508000.0,Data Axle,33f522ad7d88b57ad504162d3eab2e8f,"VIP Morton Cinemas, Morton, Illinois",40.58789099999999,-89.47679100000002,1758493555740,Synapse54,1758493555740,Synapse54
187,Virginia Theatre,W Park Ave,Champaign,Illinois,IL,61820,3928,51213101,"51213101, 71111007, 71111010",783201,"783201, 792207, 792233","Theatres-Movie, Theatres-Live, Performing Arts",,,,High,Information,Independent,2500 - 4999,2500.0,4999.0,5,312000.0,Data Axle,87311a69548ed741d38e1d6f85e1500d,"Virginia Theatre, Champaign, Illinois",40.11712200000001,-88.245674,1758493555740,Synapse54,1758493555740,Synapse54
188,Waterloo Cinema 8,Plaza Dr,Waterloo,Illinois,IL,62298,1073,51213101,51213101,783201,783201,Theatres-Movie,,,,High,Information,Independent,5000 - 9999,5000.0,9999.0,4,192000.0,Data Axle,bc3c0a0c5a09c470c821fff7f3fa9027,"Waterloo Cinema 8, Waterloo, Illinois",38.35173099999998,-90.15227299999998,1758493555740,Synapse54,1758493555740,Synapse54
189,Wayfarer Theaters,2nd St,Highland Park,Illinois,IL,60035,3158,51213101,51213101,783201,783201,Theatres-Movie,,,,High,Information,Independent,,,,68,,Data Axle,1633b383db45835e5f4153f64c1f2155,"Wayfarer Theaters, Highland Park, Illinois",42.186374,-87.80207300000001,1758493555740,Synapse54,1758493555740,Synapse54
190,Westside Cinema,W Hudson Dr,Litchfield,Illinois,IL,62056,,51213101,51213101,783201,783201,Theatres-Movie,,,,High,Information,Independent,2500 - 4999,2500.0,4999.0,2,92000.0,Data Axle,d4619e1cca59d98e303126b9f6daea7b,"Westside Cinema, Litchfield, Illinois",39.175596,-89.66914899999999,1758493555740,Synapse54,1758493555740,Synapse54
191,Willow Knolls 14-GQT Movies,W Willow Knolls Dr,Peoria,Illinois,IL,61615,4411,51213101,51213101,783201,783201,Theatres-Movie,,,"Goodrich Theater OpCo, LLC",High,Information,Branch,100000+,100000.0,,35,2119000.0,Data Axle,463e1fa3fca507097806c2387bca6aa1,"Willow Knolls 14-GQT Movies, Peoria, Illinois",40.77163099999999,-89.65594300000001,1758493555740,Synapse54,1758493555740,Synapse54
192,Youth Choral Theater-Chicago,Sprucewood Ln,Wilmette,Illinois,IL,60091,1163,51213101,"51213101, 99999005",783201,"783201, 999966","Theatres-Movie, Federal Government Contractors",,,,High,Information,Independent,,,,93,6390000.0,Data Axle,e7947cd83d0a1b0fdea3ae6656cdc531,"Youth Choral Theater-Chicago, Wilmette, Illinois",42.084493,-87.75570900000001,1758493555740,Synapse54,1758493555740,Synapse54
193,Zaffiro's Express,Grand Ave Marcus Theatres,Gurnee,Illinois,IL,60031,,51213101,51213101,783201,783201,Theatres-Movie,,,,High,Information,Independent,,,,57,,Data Axle,69940b916d1650386352e92dfdde7b59,"Zaffiro's Express, Gurnee, Illinois",42.383842,-87.95625400000002,1758493555740,Synapse54,1758493555740,Synapse54
