OBJECTID,CONAME,ADDR,CITY,STATE_NAME,STATE,ZIP,ZIP4,NAICS,NAICS_ALL,SIC,SIC_ALL,INDUSTRY_DESC,AFFILIATE,BRAND,HQNAME,LOC_CONF,NAICS_SECT,PLACETYPE,SQFOOTAGE,MIN_SQFT,MAX_SQFT,EMPNUM,SALESVOL,SOURCE,ESRI_PID,DESC_,LATITUDE,LONGITUDE,CreationDate,Creator,EditDate,Editor
1,13-24 Drive in,N State Road 13,Wabash,Indiana,IN,46992,,51213202,51213202,783301,783301,Drive-In Motion Picture Theaters,,,Honeywell Arts & Entertainment,High,Information,Branch,5000 - 9999,5000.0,9999.0,5,184000.0,Data Axle,ee9f3ee4c5e40623450063699336c410,"13-24 Drive in, Wabash, Indiana",40.838815000000004,-85.79331199999997,1758493572227,Synapse54,1758493572227,Synapse54
2,49er Drive-In Theatre,N Calumet Ave,Valparaiso,Indiana,IN,46383,,51213202,51213202,783301,783301,Drive-In Motion Picture Theaters,,,,High,Information,Independent,5000 - 9999,5000.0,9999.0,5,190000.0,Data Axle,6f948e46675cb3e696c67aff015fcf76,"49er Drive-In Theatre, Valparaiso, Indiana",41.53252299999999,-87.03441000000001,1758493572227,Synapse54,1758493572227,Synapse54
3,ABCinema,W Monroe St,Decatur,Indiana,IN,46733,1605,51213101,"51213101, 99999005",783201,"783201, 999966","Theatres-Movie, Federal Government Contractors",,,,High,Information,Independent,10000 - 19999,10000.0,19999.0,7,418000.0,Data Axle,16121b94766fe82a8ff380f3432ed2ce,"ABCinema, Decatur, Indiana",40.831648,-84.923974,1758493572227,Synapse54,1758493572227,Synapse54
4,Alamo Drafhouse Cinema,Lafayette Rd,Indianapolis,Indiana,IN,46254,2554,51213101,"51213101, 72241001, 72251117, 71131005, 72241003",783201,"783201, 581301, 581208, 651211, 581303","Theatres-Movie, Bars, Restaurants, Event Centers, Cocktail Lounges",,,Alamo Drafthouse Cinemas,High,Information,Branch,,,,50,3170000.0,Data Axle,77ea10f2ea4279f67d36521f27c9c9be,"Alamo Drafhouse Cinema, Indianapolis, Indiana",39.82716099999999,-86.23944199999998,1758493572227,Synapse54,1758493572227,Synapse54
5,AMC Castleton Square 14,E 82 Nd St,Indianapolis,Indiana,IN,46250,4586,51213101,51213101,783201,783201,Theatres-Movie,,,"American Multi-Cinema, Inc",High,Information,Branch,100000+,100000.0,,42,2663000.0,Data Axle,d36629eadfa62107890cb0edbd8ed7b2,"AMC Castleton Square 14, Indianapolis, Indiana",39.908779999999986,-86.065428,1758493572227,Synapse54,1758493572227,Synapse54
6,AMC CLASSIC Bloomington 11,S College Mall Rd,Bloomington,Indiana,IN,47401,6175,51213101,51213101,783201,783201,Theatres-Movie,,,"American Multi-Cinema, Inc",High,Information,Branch,40000 - 99999,40000.0,99999.0,35,1891000.0,Data Axle,956cdd825554d578eb24917f20d4dc01,"AMC CLASSIC Bloomington 11, Bloomington, Indiana",39.15142500000002,-86.495423,1758493572227,Synapse54,1758493572227,Synapse54
7,AMC CLASSIC Bloomington 12,W 3 Rd St,Bloomington,Indiana,IN,47404,5236,51213101,51213101,783201,783201,Theatres-Movie,,,"American Multi-Cinema, Inc",High,Information,Branch,40000 - 99999,40000.0,99999.0,17,919000.0,Data Axle,c7f7bfcf2f3bb9ed2fe74359125a5ead,"AMC CLASSIC Bloomington 12, Bloomington, Indiana",39.161925000000004,-86.571798,1758493572227,Synapse54,1758493572227,Synapse54
8,AMC CLASSIC Columbus 12,Creekview Ct,Columbus,Indiana,IN,47201,2608,51213101,51213101,783201,783201,Theatres-Movie,,,"American Multi-Cinema, Inc",High,Information,Branch,100000+,100000.0,,58,2918000.0,Data Axle,b9f5054e7e28c9aeef72bebd85308cb3,"AMC CLASSIC Columbus 12, Columbus, Indiana",39.20572399999999,-85.882229,1758493572227,Synapse54,1758493572227,Synapse54
9,AMC CLASSIC Crawfordsville 8,Dry Branch Dr,Crawfordsville,Indiana,IN,47933,3817,51213101,51213101,783201,783201,Theatres-Movie,,,"American Multi-Cinema, Inc",High,Information,Branch,40000 - 99999,40000.0,99999.0,17,777000.0,Data Axle,ae782934fa45f499f6bd05ee5a8ee4d4,"AMC CLASSIC Crawfordsville 8, Crawfordsville, Indiana",40.02047199999999,-86.901237,1758493572227,Synapse54,1758493572227,Synapse54
10,AMC CLASSIC Elkhart 14,Cassopolis St,Elkhart,Indiana,IN,46514,5131,51213101,51213101,783201,783201,Theatres-Movie,,,"American Multi-Cinema, Inc",High,Information,Branch,100000+,100000.0,,60,2966000.0,Data Axle,843a189a4c5b29913858cbd6ade354cf,"AMC CLASSIC Elkhart 14, Elkhart, Indiana",41.72188799999997,-85.974256,1758493572227,Synapse54,1758493572227,Synapse54
11,AMC CLASSIC Hobart 12,Southlake Mall,Merrillville,Indiana,IN,46410,6682,51213101,51213101,783201,783201,Theatres-Movie,,,"American Multi-Cinema, Inc",High,Information,Branch,100000+,100000.0,,49,,Data Axle,972c107934a7cf4a9bc59b9153812da0,"AMC CLASSIC Hobart 12, Merrillville, Indiana",41.46824099999999,-87.30525899999998,1758493572227,Synapse54,1758493572227,Synapse54
12,AMC CLASSIC Jefferson Point 18,W Jefferson Blvd,Fort Wayne,Indiana,IN,46804,6818,51213101,51213101,783201,783201,Theatres-Movie,,,"American Multi-Cinema, Inc",High,Information,Branch,100000+,100000.0,,60,3124000.0,Data Axle,32ea844e9339c1f0925255841ac71385,"AMC CLASSIC Jefferson Point 18, Fort Wayne, Indiana",41.073035999999995,-85.199203,1758493572227,Synapse54,1758493572227,Synapse54
13,AMC CLASSIC Kokomo 12,E Boulevard,Kokomo,Indiana,IN,46902,2479,51213101,51213101,783201,783201,Theatres-Movie,,,"American Multi-Cinema, Inc",High,Information,Branch,100000+,100000.0,,39,1821000.0,Data Axle,a3c9a14a2915df31335410522a3ca1a4,"AMC CLASSIC Kokomo 12, Kokomo, Indiana",40.464712,-86.11192499999999,1758493572227,Synapse54,1758493572227,Synapse54
14,AMC CLASSIC Marion 12,N Theatre Dr,Marion,Indiana,IN,46952,1710,51213101,51213101,783201,783201,Theatres-Movie,,,"American Multi-Cinema, Inc",High,Information,Branch,100000+,100000.0,,53,2197000.0,Data Axle,675470e0c28f57daf95995702df82bcd,"AMC CLASSIC Marion 12, Marion, Indiana",40.571567,-85.683049,1758493572227,Synapse54,1758493572227,Synapse54
15,AMC CLASSIC Michigan City 14,Meijer Dr,Michigan City,Indiana,IN,46360,7382,51213101,51213101,783201,783201,Theatres-Movie,,,"American Multi-Cinema, Inc",High,Information,Branch,100000+,100000.0,,57,2762000.0,Data Axle,f7ef142a63651bc7ac4cc87a4ee03793,"AMC CLASSIC Michigan City 14, Michigan City, Indiana",41.67344099999998,-86.88748699999996,1758493572227,Synapse54,1758493572227,Synapse54
16,AMC CLASSIC Richmond 11,National Rd E,Richmond,Indiana,IN,47374,3735,51213101,51213101,783201,783201,Theatres-Movie,,,"American Multi-Cinema, Inc",High,Information,Branch,100000+,100000.0,,38,1849000.0,Data Axle,af1dd2973a60ab3a986fbd3a6d2ac242,"AMC CLASSIC Richmond 11, Richmond, Indiana",39.829476,-84.835813,1758493572227,Synapse54,1758493572227,Synapse54
17,AMC CLASSIC Terre Haute 12,S 3 Rd Pl,Terre Haute,Indiana,IN,47802,3785,51213101,51213101,783201,783201,Theatres-Movie,,,"American Multi-Cinema, Inc",High,Information,Branch,100000+,100000.0,,29,1472000.0,Data Axle,00d3ce9e35a9b2ecf1afc2c10501ff27,"AMC CLASSIC Terre Haute 12, Terre Haute, Indiana",39.427054,-87.42514300000002,1758493572227,Synapse54,1758493572227,Synapse54
18,AMC CLASSIC Vincennes 8,S Hart Street Rd,Vincennes,Indiana,IN,47591,5588,51213101,51213101,783201,783201,Theatres-Movie,,,"American Multi-Cinema, Inc",High,Information,Branch,10000 - 19999,10000.0,19999.0,13,557000.0,Data Axle,7896370702a7c3e8a033af3658a6e91c,"AMC CLASSIC Vincennes 8, Vincennes, Indiana",38.65496199999999,-87.500615,1758493572227,Synapse54,1758493572227,Synapse54
19,AMC Evansville 16,Pearl Dr,Evansville,Indiana,IN,47712,8114,51213101,51213101,783201,783201,Theatres-Movie,,,"American Multi-Cinema, Inc",High,Information,Branch,100000+,100000.0,,40,2092000.0,Data Axle,6405ec6d565737076d037a1d797d89f9,"AMC Evansville 16, Evansville, Indiana",37.972857,-87.643471,1758493572227,Synapse54,1758493572227,Synapse54
20,AMC Indianapolis 17,S Meridian St,Indianapolis,Indiana,IN,46217,3441,51213101,51213101,783201,783201,Theatres-Movie,,,"American Multi-Cinema, Inc",High,Information,Branch,100000+,100000.0,,58,3677000.0,Data Axle,9230adfbdeb21f0aff0d4763e7b752e2,"AMC Indianapolis 17, Indianapolis, Indiana",39.701744,-86.15242599999999,1758493572227,Synapse54,1758493572227,Synapse54
21,AMC Muncie 12,E Princeton Ave,Muncie,Indiana,IN,47303,1242,51213101,51213101,783201,783201,Theatres-Movie,,,"American Multi-Cinema, Inc",High,Information,Branch,100000+,100000.0,,59,2844000.0,Data Axle,543bc54094a4f682b77bf6b831cfa1b2,"AMC Muncie 12, Muncie, Indiana",40.225767999999995,-85.37626199999997,1758493572227,Synapse54,1758493572227,Synapse54
22,AMC Perry Crossing 18,Cinema Blvd,Plainfield,Indiana,IN,46168,5511,51213101,51213101,783201,783201,Theatres-Movie,,,"American Multi-Cinema, Inc",Medium,Information,Branch,100000+,100000.0,,42,2174000.0,Data Axle,2b296aecda6ae15f1c0e07f542b86c63,"AMC Perry Crossing 18, Plainfield, Indiana",39.71119699999996,-86.36004900000002,1758493572227,Synapse54,1758493572227,Synapse54
23,AMC Schererville 12,Eagle Ridge Dr,Schererville,Indiana,IN,46375,1386,51213101,51213101,783201,783201,Theatres-Movie,,,"American Multi-Cinema, Inc",High,Information,Branch,100000+,100000.0,,71,4060000.0,Data Axle,0ab3d79cd02b701d0aa1b0813454f519,"AMC Schererville 12, Schererville, Indiana",41.49612899999999,-87.475461,1758493572227,Synapse54,1758493572227,Synapse54
24,AMC Schererville 16,Deer Creek Dr,Schererville,Indiana,IN,46375,1352,51213101,51213101,783201,783201,Theatres-Movie,,,"American Multi-Cinema, Inc",High,Information,Branch,100000+,100000.0,,68,3888000.0,Data Axle,f1d55b02ea33bc9874328a371c2dd48c,"AMC Schererville 16, Schererville, Indiana",41.49913899999998,-87.47591500000001,1758493572227,Synapse54,1758493572227,Synapse54
25,AMC South Bend 16,W Chippewa Ave,South Bend,Indiana,IN,46614,3701,51213101,51213101,783201,783201,Theatres-Movie,,,"American Multi-Cinema, Inc",High,Information,Branch,100000+,100000.0,,56,3257000.0,Data Axle,fe24ff2fbe325f22dab3629bdd373be7,"AMC South Bend 16, South Bend, Indiana",41.63509999999998,-86.25703500000002,1758493572227,Synapse54,1758493572227,Synapse54
26,AMC Traders Point 12,W 86 Th St,Indianapolis,Indiana,IN,46278,1406,51213101,51213101,783201,783201,Theatres-Movie,,,"American Multi-Cinema, Inc",High,Information,Branch,100000+,100000.0,,41,2600000.0,Data Axle,784d12b9f05221cb42f4f06577fe5b94,"AMC Traders Point 12, Indianapolis, Indiana",39.914315,-86.26554400000002,1758493572227,Synapse54,1758493572227,Synapse54
27,AMC Washington Square 12,E Washington St,Indianapolis,Indiana,IN,46229,2628,51213101,51213101,783201,783201,Theatres-Movie,,,"American Multi-Cinema, Inc",High,Information,Branch,100000+,100000.0,,41,2600000.0,Data Axle,ca5e28e90b2385ffd40e73a899bceb03,"AMC Washington Square 12, Indianapolis, Indiana",39.778735000000005,-85.98363499999998,1758493572227,Synapse54,1758493572227,Synapse54
28,Auburn Garrett Drive-in Theatre,State Road 8,Garrett,Indiana,IN,46738,,51213202,51213202,783301,783301,Drive-In Motion Picture Theaters,,,,High,Information,Independent,5000 - 9999,5000.0,9999.0,4,127000.0,Data Axle,c971a5bb6a506126699b912e6460b837,"Auburn Garrett Drive-in Theatre, Garrett, Indiana",41.36527499999998,-85.144679,1758493572227,Synapse54,1758493572227,Synapse54
29,Bel-Air Drive-in Movie Theatre,N US Highway 421,Versailles,Indiana,IN,47042,9015,51213202,51213202,783301,783301,Drive-In Motion Picture Theaters,,,,High,Information,Independent,5000 - 9999,5000.0,9999.0,5,142000.0,Data Axle,f2a8976c41ddeb49f8f0e8f944af9cd5,"Bel-Air Drive-in Movie Theatre, Versailles, Indiana",39.07976300000001,-85.27365499999999,1758493572227,Synapse54,1758493572227,Synapse54
30,Bones Theatre,N Opportunity Dr,Columbia City,Indiana,IN,46725,1041,51213101,"51213101, 99999005",783201,"783201, 999966","Theatres-Movie, Federal Government Contractors",,,,High,Information,Independent,10000 - 19999,10000.0,19999.0,9,344000.0,Data Axle,f8d909491b682897f363f354a165f44e,"Bones Theatre, Columbia City, Indiana",41.17305499999999,-85.507288,1758493572227,Synapse54,1758493572227,Synapse54
31,Brookville Theatre,W 5th St,Brookville,Indiana,IN,47012,1402,51213101,"51213101, 99999005",783201,"783201, 999966","Theatres-Movie, Federal Government Contractors",,,,High,Information,Independent,2500 - 4999,2500.0,4999.0,2,99000.0,Data Axle,7eef78a9701f8ad2587fc41706167dad,"Brookville Theatre, Brookville, Indiana",39.41936900000001,-85.013385,1758493572227,Synapse54,1758493572227,Synapse54
32,Brownsburg 8 GDX-GQT Movies,N Green St,Brownsburg,Indiana,IN,46112,8066,51213101,51213101,783201,783201,Theatres-Movie,,,"Goodrich Theater OpCo, LLC",High,Information,Branch,20000 - 39999,20000.0,39999.0,15,673000.0,Data Axle,30f908fbcc8f7c86795aa86a6efee8e5,"Brownsburg 8 GDX-GQT Movies, Brownsburg, Indiana",39.86864999999999,-86.39032099999999,1758493572227,Synapse54,1758493572227,Synapse54
33,Centerbrook Drive-in,State Road 67 N,Martinsville,Indiana,IN,46151,8982,51213202,"51213202, 72251117",783301,"783301, 581208","Drive-In Motion Picture Theaters, Restaurants",,,,High,Information,Independent,2500 - 4999,2500.0,4999.0,4,115000.0,Data Axle,d56db1fd22934a09602da9d4469238bd,"Centerbrook Drive-in, Martinsville, Indiana",39.52450799999999,-86.39272199999999,1758493572227,Synapse54,1758493572227,Synapse54
34,Cinema 66,State Road 66,Tell City,Indiana,IN,47586,,51213101,51213101,783201,783201,Theatres-Movie,,,,Low,Information,Independent,10000 - 19999,10000.0,19999.0,6,235000.0,Data Axle,24a08bdb3370d81fadc4cb96e4dbf1a2,"Cinema 66, Tell City, Indiana",37.95078,-86.76387999999999,1758493572227,Synapse54,1758493572227,Synapse54
35,Cinemark Greenwood Corner,E Stop 13 Rd,Indianapolis,Indiana,IN,46227,0847,51213101,"51213101, 71394010",783201,"783201, 799935","Theatres-Movie, Halls & Auditoriums",,,"Cinemark USA, Inc",High,Information,Branch,40000 - 99999,40000.0,99999.0,22,1268000.0,Data Axle,20db304b28fda6681e7e671490b479e0,"Cinemark Greenwood Corner, Indianapolis, Indiana",39.639556000000006,-86.12582099999999,1758493572227,Synapse54,1758493572227,Synapse54
36,Cinemark South Bend Movies 14,W Edison Rd,Mishawaka,Indiana,IN,46545,2771,51213101,"51213101, 71394010",783201,"783201, 799935","Theatres-Movie, Halls & Auditoriums",,,"Cinemark USA, Inc",High,Information,Branch,40000 - 99999,40000.0,99999.0,16,1105000.0,Data Axle,6c090859517dba75deac97df1b9ded68,"Cinemark South Bend Movies 14, Mishawaka, Indiana",41.696805999999995,-86.194568,1758493572227,Synapse54,1758493572227,Synapse54
37,Cinemark Valparaiso,Porters Vale Blvd,Valparaiso,Indiana,IN,46383,8471,51213101,"51213101, 71394010",783201,"783201, 799935","Theatres-Movie, Halls & Auditoriums",,,"Cinemark USA, Inc",High,Information,Branch,100000+,100000.0,,37,2495000.0,Data Axle,4be8d490c450374533d3f931d2bb298e,"Cinemark Valparaiso, Valparaiso, Indiana",41.47441499999998,-87.01567199999998,1758493572227,Synapse54,1758493572227,Synapse54
38,Clyde Theater,Bluffton Rd,Fort Wayne,Indiana,IN,46809,1306,51213101,51213101,783201,783201,Theatres-Movie,,,,High,Information,Independent,20000 - 39999,20000.0,39999.0,14,729000.0,Data Axle,fbe89c7c9dd35289602a02f0f36e8ce0,"Clyde Theater, Fort Wayne, Indiana",41.05209099999998,-85.16125099999998,1758493572227,Synapse54,1758493572227,Synapse54
39,Corydon Cinemas,Edsel Ln NW,Corydon,Indiana,IN,47112,2168,51213101,51213101,783201,783201,Theatres-Movie,,,,High,Information,Independent,10000 - 19999,10000.0,19999.0,9,389000.0,Data Axle,b174d8258a72aaf35360ad9ad153d6a2,"Corydon Cinemas, Corydon, Indiana",38.230864000000004,-86.135111,1758493572227,Synapse54,1758493572227,Synapse54
40,Crump Theatre,3rd St,Columbus,Indiana,IN,47201,6721,51213101,51213101,783201,783201,Theatres-Movie,,,,High,Information,Independent,10000 - 19999,10000.0,19999.0,6,302000.0,Data Axle,2af6e17b5b2a2bc8f8d3c2f38d0805f0,"Crump Theatre, Columbus, Indiana",39.200939000000005,-85.92015799999999,1758493572227,Synapse54,1758493572227,Synapse54
41,Diana Theatre,E Jefferson St,Tipton,Indiana,IN,46072,1909,51213101,51213101,783201,783201,Theatres-Movie,,,,High,Information,Independent,1500 - 2499,1500.0,2499.0,4,191000.0,Data Axle,39262bfad5d4d938642241b2e0ccdcc9,"Diana Theatre, Tipton, Indiana",40.282021999999984,-86.039679,1758493572227,Synapse54,1758493572227,Synapse54
42,Eagles Theatre,W Market St,Wabash,Indiana,IN,46992,3052,51213101,51213101,783201,783201,Theatres-Movie,,,Honeywell Arts & Entertainment,High,Information,Branch,10000 - 19999,10000.0,19999.0,6,228000.0,Data Axle,6d7957e109208b9356184402316e6793,"Eagles Theatre, Wabash, Indiana",40.79702399999998,-85.822647,1758493572227,Synapse54,1758493572227,Synapse54
43,Eastside 10 IMAX-GQT Movies,Farabee Dr N,Lafayette,Indiana,IN,47905,5911,51213101,51213101,783201,783201,Theatres-Movie,,,"Goodrich Theater OpCo, LLC",High,Information,Branch,20000 - 39999,20000.0,39999.0,12,658000.0,Data Axle,57e3467897270700a6b56887a6958409,"Eastside 10 IMAX-GQT Movies, Lafayette, Indiana",40.42057099999999,-86.85211700000002,1758493572227,Synapse54,1758493572227,Synapse54
44,Emagine Theatres Noblesville,Norell Rd,Noblesville,Indiana,IN,46060,6602,51213101,51213101,783201,783201,Theatres-Movie,,,"Emagine Entertainment, Inc",High,Information,Branch,10000 - 19999,10000.0,19999.0,5,327000.0,Data Axle,b915d60474aa7997a8063dabcb0b7922,"Emagine Theatres Noblesville, Noblesville, Indiana",39.989891999999976,-85.93352499999997,1758493572227,Synapse54,1758493572227,Synapse54
45,Emagine Theatres Portage,American Way,Portage,Indiana,IN,46368,,51213101,51213101,783201,783201,Theatres-Movie,,,"Emagine Entertainment, Inc",Medium,Information,Branch,,,,68,3688000.0,Data Axle,95573a370cef802715cffff0bb2471c1,"Emagine Theatres Portage, Portage, Indiana",41.55222599999999,-87.16012099999999,1758493572227,Synapse54,1758493572227,Synapse54
46,Flix Brewhouse Carmel,E 116 Th St,Carmel,Indiana,IN,46032,3215,51213101,"51213101, 99999005, 72241008",783201,"783201, 999966, 581305","Theatres-Movie, Federal Government Contractors, Pubs",,,Flix Entertainment LLC,High,Information,Branch,40000 - 99999,40000.0,99999.0,17,925000.0,Data Axle,c4e6b669dc1a7266691ac5516035df6e,"Flix Brewhouse Carmel, Carmel, Indiana",39.959465,-86.116962,1758493572227,Synapse54,1758493572227,Synapse54
47,Fountain Stone Theaters,Saint Gaspar Dr,Rensselaer,Indiana,IN,47978,,51213101,51213101,783201,783201,Theatres-Movie,,,,High,Information,Independent,20000 - 39999,20000.0,39999.0,18,,Data Axle,b8c8d1195bb6cd7ae2c60977535f2d5f,"Fountain Stone Theaters, Rensselaer, Indiana",40.925735999999986,-87.15170799999999,1758493572227,Synapse54,1758493572227,Synapse54
48,Fountain Stone Theatres Inc,St Gaspar Dr,Rensselaer,Indiana,IN,47978,,51213101,"51213101, 99999005",783201,"783201, 999966","Theatres-Movie, Federal Government Contractors",,,,High,Information,Independent,10000 - 19999,10000.0,19999.0,8,397000.0,Data Axle,661adc6b9d21fe76f55825daf4930d04,"Fountain Stone Theatres Inc, Rensselaer, Indiana",40.925735999999986,-87.15170799999999,1758493572227,Synapse54,1758493572227,Synapse54
49,Fowler Theatre,E 5th St,Fowler,Indiana,IN,47944,1443,51213101,51213101,783201,783201,Theatres-Movie,,,,High,Information,Independent,10000 - 19999,10000.0,19999.0,7,245000.0,Data Axle,965348977c4dc1d767f62391ae04367b,"Fowler Theatre, Fowler, Indiana",40.617976,-87.322932,1758493572227,Synapse54,1758493572227,Synapse54
50,Georgetown Drive in Theater,State Road 64,Georgetown,Indiana,IN,47122,9055,51213202,"51213202, 71111007",783301,"783301, 792207","Drive-In Motion Picture Theaters, Theatres-Live",,,,High,Information,Independent,1500 - 2499,1500.0,2499.0,1,32000.0,Data Axle,72e592a0240bd906ce01a68a3b3b74ab,"Georgetown Drive in Theater, Georgetown, Indiana",38.29658899999997,-85.960706,1758493572227,Synapse54,1758493572227,Synapse54
51,Gibson Theatre,N Main St,Batesville,Indiana,IN,47006,1245,51213101,51213101,783201,783201,Theatres-Movie,,,,High,Information,Independent,10000 - 19999,10000.0,19999.0,12,484000.0,Data Axle,ccc74c360893bf805f1c6407f055c124,"Gibson Theatre, Batesville, Indiana",39.29955799999999,-85.222088,1758493572227,Synapse54,1758493572227,Synapse54
52,Glendale 12-Landmark Theatres,N Rural St,Indianapolis,Indiana,IN,46220,2974,51213101,51213101,783201,783201,Theatres-Movie,,,Landmark Theatres,Medium,Information,Branch,10000 - 19999,10000.0,19999.0,5,317000.0,Data Axle,7a4bdad4bdc42d2bd18ca65b03a03792,"Glendale 12-Landmark Theatres, Indianapolis, Indiana",39.86559999999998,-86.1176,1758493572227,Synapse54,1758493572227,Synapse54
53,Greendale Cinemas,Flossie Dr,Lawrenceburg,Indiana,IN,47025,8973,51213101,"51213101, 99999005",783201,"783201, 999966","Theatres-Movie, Federal Government Contractors",,,,High,Information,Independent,10000 - 19999,10000.0,19999.0,8,,Data Axle,1d260da07a6bc242942445a597119966,"Greendale Cinemas, Lawrenceburg, Indiana",39.127376000000005,-84.839266,1758493572227,Synapse54,1758493572227,Synapse54
54,Holiday Drive-in Theatre,N State Road 161,Rockport,Indiana,IN,47635,8831,51213202,51213202,783301,783301,Drive-In Motion Picture Theaters,,,,High,Information,Independent,1500 - 2499,1500.0,2499.0,2,45000.0,Data Axle,31e2fa2fb350bef8c4d6230dcd2e6996,"Holiday Drive-in Theatre, Rockport, Indiana",37.89725399999999,-87.11120900000002,1758493572227,Synapse54,1758493572227,Synapse54
55,Hoosier Theatre,119th St,Whiting,Indiana,IN,46394,1627,51213101,51213101,783201,783201,Theatres-Movie,,,,High,Information,Independent,10000 - 19999,10000.0,19999.0,8,458000.0,Data Axle,3e2c0bad21fd0f5f26b613f65270446e,"Hoosier Theatre, Whiting, Indiana",41.67948299999999,-87.496262,1758493572227,Synapse54,1758493572227,Synapse54
56,Huntington 7-GQT Movies,Hauenstein Rd,Huntington,Indiana,IN,46750,8898,51213101,51213101,783201,783201,Theatres-Movie,,,"Goodrich Theater OpCo, LLC",High,Information,Branch,20000 - 39999,20000.0,39999.0,12,485000.0,Data Axle,c3c8307e2ce253d164205bce322514dd,"Huntington 7-GQT Movies, Huntington, Indiana",40.89615699999998,-85.521049,1758493572227,Synapse54,1758493572227,Synapse54
57,Huntington Twin Drive-in-GQT Movies,Condit St,Huntington,Indiana,IN,46750,4312,51213101,"51213101, 51213202",783201,"783201, 783301","Theatres-Movie, Drive-In Motion Picture Theaters",,,"Goodrich Theater OpCo, LLC",High,Information,Branch,10000 - 19999,10000.0,19999.0,7,283000.0,Data Axle,8f05155b5907b9a81ff5163e86347d71,"Huntington Twin Drive-in-GQT Movies, Huntington, Indiana",40.89144999999997,-85.4796,1758493572227,Synapse54,1758493572227,Synapse54
58,IMAX Theatre at the Indiana State Museum,W Washington St,Indianapolis,Indiana,IN,46204,2725,51213101,51213101,783201,783201,Theatres-Movie,,,,High,Information,Independent,40000 - 99999,40000.0,99999.0,16,1015000.0,Data Axle,2e11c3f223727ce30c459622fd02bc06,"IMAX Theatre at the Indiana State Museum, Indianapolis, Indiana",39.768663999999994,-86.16977900000002,1758493572227,Synapse54,1758493572227,Synapse54
59,Isis Theatre,N Monticello St,Denham,Indiana,IN,46996,1334,51213101,51213101,783201,783201,Theatres-Movie,,,,High,Information,Independent,1500 - 2499,1500.0,2499.0,2,76000.0,Data Axle,8b9515a2f0f9704eee649c23939582e3,"Isis Theatre, Denham, Indiana",41.05219499999999,-86.60302500000002,1758493572227,Synapse54,1758493572227,Synapse54
60,Kan Kan Cinema,Windsor St,Indianapolis,Indiana,IN,46201,1168,51213101,51213101,783201,783201,Theatres-Movie,,,,High,Information,Independent,20000 - 39999,20000.0,39999.0,12,,Data Axle,57083fc95cc211dfe54d5409917c3582,"Kan Kan Cinema, Indianapolis, Indiana",39.78475199999999,-86.12957500000002,1758493572227,Synapse54,1758493572227,Synapse54
61,Keystone Art Cinema-Landmark Theatres,Keystone Xing,Indianapolis,Indiana,IN,46240,7771,51213101,51213101,783201,783201,Theatres-Movie,,,Landmark Theatres,High,Information,Branch,40000 - 99999,40000.0,99999.0,14,1142000.0,Data Axle,5b150a252b294f7d81d428dd354e4262,"Keystone Art Cinema-Landmark Theatres, Indianapolis, Indiana",39.914540999999986,-86.11103200000001,1758493572227,Synapse54,1758493572227,Synapse54
62,KJB Theaters,N 17 Th St,Terre Haute,Indiana,IN,47804,1408,51213101,"51213101, 99999005",783201,"783201, 999966","Theatres-Movie, Federal Government Contractors",,,,High,Information,Independent,,,,66,3349000.0,Data Axle,f2a9e68c3a3704f2190f377b5275af5a,"KJB Theaters, Terre Haute, Indiana",39.505566999999985,-87.38945800000002,1758493572227,Synapse54,1758493572227,Synapse54
63,Lake Shore Drive-in Theater,Rickey Rd,Monticello,Indiana,IN,47960,1537,51213202,51213202,783301,783301,Drive-In Motion Picture Theaters,,,,High,Information,Independent,5000 - 9999,5000.0,9999.0,5,142000.0,Data Axle,4142eddb5ce362bb9914cfa021fca671,"Lake Shore Drive-in Theater, Monticello, Indiana",40.768197,-86.77182200000001,1758493572227,Synapse54,1758493572227,Synapse54
64,Lebanon 7-GQT Movies,N Lebanon St,Lebanon,Indiana,IN,46052,1514,51213101,51213101,783201,783201,Theatres-Movie,,,"Goodrich Theater OpCo, LLC",High,Information,Branch,40000 - 99999,40000.0,99999.0,15,745000.0,Data Axle,e2fb45874731dcfe47d9833946b29abb,"Lebanon 7-GQT Movies, Lebanon, Indiana",40.06089799999998,-86.47230999999998,1758493572227,Synapse54,1758493572227,Synapse54
65,Legacy Cinema,W Main St,Greenfield,Indiana,IN,46140,2720,51213101,51213101,783201,783201,Theatres-Movie,,,,High,Information,Independent,20000 - 39999,20000.0,39999.0,16,720000.0,Data Axle,fa4b1607d61b6b136ebfe78165c0114b,"Legacy Cinema, Greenfield, Indiana",39.782053,-85.806548,1758493572227,Synapse54,1758493572227,Synapse54
66,Lincoln Amphitheater,N Cr 300 E,Lincoln City,Indiana,IN,47552,,51213101,51213101,783201,783201,Theatres-Movie,,,,High,Information,Independent,,,,24,1433000.0,Data Axle,177dc277596ef1161648c1fd4fa7e2e9,"Lincoln Amphitheater, Lincoln City, Indiana",38.101611,-87.004004,1758493572227,Synapse54,1758493572227,Synapse54
67,Linton Cinema Three,A St NE,Linton,Indiana,IN,47441,1614,51213101,51213101,783201,783201,Theatres-Movie,,,,High,Information,Independent,40000 - 99999,40000.0,99999.0,9,352000.0,Data Axle,33d5ed31e9d42db73e64b0d7f4a8dd1e,"Linton Cinema Three, Linton, Indiana",39.03984499999999,-87.144257,1758493572227,Synapse54,1758493572227,Synapse54
68,Linway Cinema,W Lincoln Ave,Goshen,Indiana,IN,46526,2414,51213101,51213101,783201,783201,Theatres-Movie,,,,Medium,Information,Independent,10000 - 19999,10000.0,19999.0,9,,Data Axle,f45c826cc0d2730514cc6b15ad306c54,"Linway Cinema, Goshen, Indiana",41.586320000000015,-85.843005,1758493572227,Synapse54,1758493572227,Synapse54
69,Living Room Theaters,E 9 Th St,Indianapolis,Indiana,IN,46202,4145,51213101,51213101,783201,783201,Theatres-Movie,,,"Living Room Theaters, Inc",High,Information,Branch,,,,49,3107000.0,Data Axle,0870343ff229e8df83d0f73871291d25,"Living Room Theaters, Indianapolis, Indiana",39.779340999999995,-86.144014,1758493572227,Synapse54,1758493572227,Synapse54
70,Logansport Theater LLC,Lexington Rd,Logansport,Indiana,IN,46947,2369,51213101,"51213101, 99999005",783201,"783201, 999966","Theatres-Movie, Federal Government Contractors",,,,High,Information,Independent,10000 - 19999,10000.0,19999.0,7,261000.0,Data Axle,22594c95b1fed9586417082f381c6c02,"Logansport Theater LLC, Logansport, Indiana",40.76325299999998,-86.31158000000002,1758493572227,Synapse54,1758493572227,Synapse54
71,Madison 6 Cinemas,Jefferson Ct,Madison,Indiana,IN,47250,1800,51213101,51213101,783201,783201,Theatres-Movie,,,,High,Information,Independent,40000 - 99999,40000.0,99999.0,19,,Data Axle,287839673eb29fe877946fac0ee5aa7c,"Madison 6 Cinemas, Madison, Indiana",38.77700800000001,-85.403153,1758493572227,Synapse54,1758493572227,Synapse54
72,Mallers Joyner Cinemas LLC,Mariners Dr,Warsaw,Indiana,IN,46582,7652,51213101,"51213101, 99999005",783201,"783201, 999966","Theatres-Movie, Federal Government Contractors",,,,High,Information,Independent,,,,39,1810000.0,Data Axle,ff7fff93803505bdc0503721369601e7,"Mallers Joyner Cinemas LLC, Warsaw, Indiana",41.252395,-85.82425499999998,1758493572227,Synapse54,1758493572227,Synapse54
73,Mary Max Cinemas,Lexington Rd,Logansport,Indiana,IN,46947,2369,51213101,51213101,783201,783201,Theatres-Movie,,,,High,Information,Independent,10000 - 19999,10000.0,19999.0,9,336000.0,Data Axle,753d039cef483be88c804db7a3282329,"Mary Max Cinemas, Logansport, Indiana",40.76325299999998,-86.31158000000002,1758493572227,Synapse54,1758493572227,Synapse54
74,McIc Vermont LLC,W Lincoln Ave,Goshen,Indiana,IN,46526,2414,51213101,"51213101, 99999005",783201,"783201, 999966","Theatres-Movie, Federal Government Contractors",,,,Medium,Information,Independent,,,,57,3410000.0,Data Axle,8d8770ef793cd3235e1b2cfe224c1e93,"McIc Vermont LLC, Goshen, Indiana",41.586320000000015,-85.843005,1758493572227,Synapse54,1758493572227,Synapse54
75,Melody Drive in Theatre,S US Highway 35,Knox,Indiana,IN,46534,8210,51213202,51213202,783301,783301,Drive-In Motion Picture Theaters,,,,High,Information,Independent,5000 - 9999,5000.0,9999.0,4,,Data Axle,2565c39624fd2eff58255f1d8f77937c,"Melody Drive in Theatre, Knox, Indiana",41.20003299999997,-86.603716,1758493572227,Synapse54,1758493572227,Synapse54
76,Nappanee Theatre,N Main St,Nappanee,Indiana,IN,46550,1938,51213101,51213101,783201,783201,Theatres-Movie,,,,High,Information,Independent,10000 - 19999,10000.0,19999.0,9,544000.0,Data Axle,a9a5af90ae11a31e1e01fa2d36059eac,"Nappanee Theatre, Nappanee, Indiana",41.44325799999999,-86.001687,1758493572227,Synapse54,1758493572227,Synapse54
77,NCG Cinema Auburn,Smaltz Way,Auburn,Indiana,IN,46706,9597,51213101,51213101,783201,783201,Theatres-Movie,,,Neighborhood Cinema Group,High,Information,Branch,10000 - 19999,10000.0,19999.0,7,316000.0,Data Axle,ed7d3c64bbfd69490bc58ba2afc12ae6,"NCG Cinema Auburn, Auburn, Indiana",41.35957499999999,-85.087196,1758493572227,Synapse54,1758493572227,Synapse54
78,Nightsky Outdoor Cinema,9th St,Tell City,Indiana,IN,47586,1406,51213202,51213202,783301,783301,Drive-In Motion Picture Theaters,,,,High,Information,Independent,10000 - 19999,10000.0,19999.0,7,257000.0,Data Axle,df714d990da221e3a988b609be33b7b0,"Nightsky Outdoor Cinema, Tell City, Indiana",37.960240000000006,-86.76804899999999,1758493572227,Synapse54,1758493572227,Synapse54
79,North Park Cinemas Inc,N 3rd Ave,Evansville,Indiana,IN,47710,3584,51213101,"51213101, 99999005",783201,"783201, 999966","Theatres-Movie, Federal Government Contractors",,,,High,Information,Independent,,,,59,3085000.0,Data Axle,7befaec7d07ed6698cc2feb4f2873204,"North Park Cinemas Inc, Evansville, Indiana",38.016273999999996,-87.57874400000001,1758493572227,Synapse54,1758493572227,Synapse54
80,North Pointe Cinemas,Mariners Dr,Warsaw,Indiana,IN,46582,7652,51213101,51213101,783201,783201,Theatres-Movie,,,,High,Information,Independent,20000 - 39999,20000.0,39999.0,10,464000.0,Data Axle,2bd591fd1e31f2a55e1cc91d3ddc5b98,"North Pointe Cinemas, Warsaw, Indiana",41.252395,-85.82425499999998,1758493572227,Synapse54,1758493572227,Synapse54
81,Northgate Cinema Inc,Lakewood Dr,Greenfield,Indiana,IN,46140,8737,51213101,51213101,783201,783201,Theatres-Movie,,,,High,Information,Independent,,,,87,3913000.0,Data Axle,ffe4e3244dfd5ae696137283d91a3e03,"Northgate Cinema Inc, Greenfield, Indiana",39.839808,-85.78042,1758493572227,Synapse54,1758493572227,Synapse54
82,Ole Olson Memorial Theatre,S Broadway,Peru,Indiana,IN,46970,2226,51213101,"51213101, 81341005, 81331908",783201,"783201, 864106, 839998","Theatres-Movie, Educational Associations, Non-Profit Organizations",,,,Medium,Information,Independent,10000 - 19999,10000.0,19999.0,11,419000.0,Data Axle,896ca6256676c58379036f3469868887,"Ole Olson Memorial Theatre, Peru, Indiana",40.750913000000004,-86.06696799999999,1758493572227,Synapse54,1758493572227,Synapse54
83,Pantheon Theatre Co,Main St,Vincennes,Indiana,IN,47591,2020,51213101,"51213101, 99999005",783201,"783201, 999966","Theatres-Movie, Federal Government Contractors",,,,High,Information,Independent,10000 - 19999,10000.0,19999.0,7,300000.0,Data Axle,0ac1f36bded23ca07a4f527ea87a476e,"Pantheon Theatre Co, Vincennes, Indiana",38.67781799999998,-87.52994300000002,1758493572227,Synapse54,1758493572227,Synapse54
84,Pickwick Theatre,W Main St,Syracuse,Indiana,IN,46567,1125,51213101,"51213101, 99999005",783201,"783201, 999966","Theatres-Movie, Federal Government Contractors",,,,High,Information,Independent,10000 - 19999,10000.0,19999.0,7,418000.0,Data Axle,cd23100f4d025f7bf827e1727af4a891,"Pickwick Theatre, Syracuse, Indiana",41.427750999999994,-85.75334700000002,1758493572227,Synapse54,1758493572227,Synapse54
85,Princess Theatres,N Main St,Rushville,Indiana,IN,46173,1636,51213101,51213101,783201,783201,Theatres-Movie,,,,High,Information,Independent,20000 - 39999,20000.0,39999.0,9,538000.0,Data Axle,ca9945742f6a7a6a304b97061d2bfb21,"Princess Theatres, Rushville, Indiana",39.610034999999975,-85.444419,1758493572227,Synapse54,1758493572227,Synapse54
86,Rees Theatre,N Michigan St,Plymouth,Indiana,IN,46563,2133,51213101,"51213101, 71111007, 81331908",783201,"783201, 792207, 839998","Theatres-Movie, Theatres-Live, Non-Profit Organizations",,,,High,Information,Independent,5000 - 9999,5000.0,9999.0,4,158000.0,Data Axle,8698257cbcf187d7068363c53c620ba6,"Rees Theatre, Plymouth, Indiana",41.34011499999998,-86.30866799999998,1758493572227,Synapse54,1758493572227,Synapse54
87,Regal Coldwater Crossing,W Washington Center Rd,Fort Wayne,Indiana,IN,46825,4311,51213101,51213101,783201,783201,Theatres-Movie,,,Regal Cinemas Inc,High,Information,Branch,40000 - 99999,40000.0,99999.0,21,1094000.0,Data Axle,1ef431bef92137e818e6af97dbf203ad,"Regal Coldwater Crossing, Fort Wayne, Indiana",41.13111499999999,-85.142184,1758493572227,Synapse54,1758493572227,Synapse54
88,Regal Greenwood,Greenwood Park South Dr,Greenwood,Indiana,IN,46142,4513,51213101,51213101,783201,783201,Theatres-Movie,,,Regal Cinemas Inc,Medium,Information,Branch,100000+,100000.0,,41,1897000.0,Data Axle,ac97e7c5cc5aecacf845be01696b77d5,"Regal Greenwood, Greenwood, Indiana",39.629965999999996,-86.117698,1758493572227,Synapse54,1758493572227,Synapse54
89,Regal Noblesville,Town And Country Blvd,Noblesville,Indiana,IN,46060,3923,51213101,51213101,783201,783201,Theatres-Movie,,,Regal Cinemas Inc,High,Information,Branch,40000 - 99999,40000.0,99999.0,12,941000.0,Data Axle,ba00e832a10e5714639fad1e9a90e60e,"Regal Noblesville, Noblesville, Indiana",40.032628999999986,-85.98985600000002,1758493572227,Synapse54,1758493572227,Synapse54
90,Regal Shiloh Crossing,E US Highway 36,Avon,Indiana,IN,46123,7003,51213101,51213101,783201,783201,Theatres-Movie,,,Regal Cinemas Inc,High,Information,Branch,100000+,100000.0,,36,1863000.0,Data Axle,f1d4e005a20163d02537e98f79476ed2,"Regal Shiloh Crossing, Avon, Indiana",39.766341,-86.33767699999997,1758493572227,Synapse54,1758493572227,Synapse54
91,Regal UA Galaxy-Indianapolis,E 96 Th St,Indianapolis,Indiana,IN,46256,1012,51213101,51213101,783201,783201,Theatres-Movie,,,United Artists Theatre Co,High,Information,Branch,40000 - 99999,40000.0,99999.0,22,1395000.0,Data Axle,907314f6dfdc8781df58d6c7b34e2293,"Regal UA Galaxy-Indianapolis, Indianapolis, Indiana",39.924983999999995,-86.026028,1758493572227,Synapse54,1758493572227,Synapse54
92,Regal Village Park,E 146 Th St,Carmel,Indiana,IN,46033,7708,51213101,51213101,783201,783201,Theatres-Movie,,,Regal Cinemas Inc,High,Information,Branch,100000+,100000.0,,32,1741000.0,Data Axle,91a7e46c750beacb736f9d1c6c8be549,"Regal Village Park, Carmel, Indiana",40.001138000000005,-86.120901,1758493572227,Synapse54,1758493572227,Synapse54
93,Republic Theatres,E State Road 44,Shelbyville,Indiana,IN,46176,1844,51213101,51213101,783201,783201,Theatres-Movie,,,,High,Information,Headquarters,20000 - 39999,20000.0,39999.0,21,937000.0,Data Axle,3157b21ff460d1a92cb5145e2d08c887,"Republic Theatres, Shelbyville, Indiana",39.52159199999997,-85.752596,1758493572227,Synapse54,1758493572227,Synapse54
94,Roxy 5 LLC,Shadowbrook Dr,Peru,Indiana,IN,46970,9119,51213101,"51213101, 99999005",783201,"783201, 999966","Theatres-Movie, Federal Government Contractors",,,,High,Information,Independent,,,,3,115000.0,Data Axle,da4db3ccc79d4350bf17252ab8fa59e7,"Roxy 5 LLC, Peru, Indiana",40.778988,-86.034524,1758493572227,Synapse54,1758493572227,Synapse54
95,Roxy Theater,Roxy Ln,Peru,Indiana,IN,46970,5401,51213101,51213101,783201,783201,Theatres-Movie,,,,High,Information,Independent,40000 - 99999,40000.0,99999.0,40,1524000.0,Data Axle,ed9a3292c2a607ad8d068f250f0ecb38,"Roxy Theater, Peru, Indiana",40.76984999999999,-86.075606,1758493572227,Synapse54,1758493572227,Synapse54
96,Showland Cinema,N Oak Dr,Plymouth,Indiana,IN,46563,7942,51213101,51213101,783201,783201,Theatres-Movie,,,,High,Information,Independent,10000 - 19999,10000.0,19999.0,7,276000.0,Data Axle,e377b92c0acc453a1c72fc2b6a9c54a2,"Showland Cinema, Plymouth, Indiana",41.36753499999997,-86.32971099999999,1758493572227,Synapse54,1758493572227,Synapse54
97,Showplace Cinema,Tanger Blvd,Seymour,Indiana,IN,47274,1800,51213101,51213101,783201,783201,Theatres-Movie,,,Showplace Cinemas,High,Information,Branch,,,,30,,Data Axle,dbed91511a541856ada13927139bdd92,"Showplace Cinema, Seymour, Indiana",38.96321600000001,-85.840528,1758493572227,Synapse54,1758493572227,Synapse54
98,Showplace Cinemas,W Broadway St,Princeton,Indiana,IN,47670,9401,51213101,51213101,783201,783201,Theatres-Movie,,,Showplace Cinemas,Medium,Information,Branch,,,,32,1352000.0,Data Axle,20fd5d8ba653b5fb286c450898449bfa,"Showplace Cinemas, Princeton, Indiana",38.355481999999995,-87.607529,1758493572227,Synapse54,1758493572227,Synapse54
99,Showplace Cinemas,Morgan Center Dr,Evansville,Indiana,IN,47715,1984,51213101,51213101,783201,783201,Theatres-Movie,,,,High,Information,Headquarters,100000+,100000.0,,54,2824000.0,Data Axle,e531d37ce8a241d9e233a18296faeff6,"Showplace Cinemas, Evansville, Indiana",37.99246999999998,-87.49519899999999,1758493572227,Synapse54,1758493572227,Synapse54
100,Showplace Cinemas Connersville 8,N Park Rd,Connersville,Indiana,IN,47331,2964,51213101,51213101,783201,783201,Theatres-Movie,,,Showplace Cinemas,High,Information,Branch,10000 - 19999,10000.0,19999.0,20,1194000.0,Data Axle,588e56074b00ca7fbef37ccf38cba74d,"Showplace Cinemas Connersville 8, Connersville, Indiana",39.661801999999994,-85.13001899999999,1758493572227,Synapse54,1758493572227,Synapse54
101,Showplace Cinemas Evansville East 20,Morgan Center Dr,Evansville,Indiana,IN,47715,1984,51213101,51213101,783201,783201,Theatres-Movie,,,Showplace Cinemas,High,Information,Branch,,,,56,2929000.0,Data Axle,b65c4206fdce45712fa55f2d7a2f9562,"Showplace Cinemas Evansville East 20, Evansville, Indiana",37.99246999999998,-87.49519899999999,1758493572227,Synapse54,1758493572227,Synapse54
102,Showplace Cinemas Evansville North 9,N 3rd Ave,Evansville,Indiana,IN,47710,3509,51213101,51213101,783201,783201,Theatres-Movie,,,Showplace Cinemas,Low,Information,Branch,2500 - 4999,2500.0,4999.0,6,262000.0,Data Axle,b487cb4880f3d333b69ca5ffa0cd0585,"Showplace Cinemas Evansville North 9, Evansville, Indiana",38.01652000000001,-87.57856000000001,1758493572227,Synapse54,1758493572227,Synapse54
103,Showplace Cinemas Jasper 8,Brucke Strasse,Jasper,Indiana,IN,47546,3460,51213101,51213101,783201,783201,Theatres-Movie,,,Showplace Cinemas,Low,Information,Branch,10000 - 19999,10000.0,19999.0,7,328000.0,Data Axle,3477b2ba2fcf1699e3ffd90233de0e8f,"Showplace Cinemas Jasper 8, Jasper, Indiana",38.38488999999999,-86.92894000000001,1758493572227,Synapse54,1758493572227,Synapse54
104,Showplace Cinemas Newburgh 10,Bell Oaks Dr,Newburgh,Indiana,IN,47630,,51213101,51213101,783201,783201,Theatres-Movie,,,Showplace Cinemas,High,Information,Branch,20000 - 39999,20000.0,39999.0,11,538000.0,Data Axle,150ab4425882e4bc446da441aa9fa1c4,"Showplace Cinemas Newburgh 10, Newburgh, Indiana",37.974363999999994,-87.397758,1758493572227,Synapse54,1758493572227,Synapse54
105,Showplace Cinemas Princeton 8,W Broadway St,Princeton,Indiana,IN,47670,9420,51213101,51213101,783201,783201,Theatres-Movie,,,Showplace Cinemas,High,Information,Branch,40000 - 99999,40000.0,99999.0,21,861000.0,Data Axle,83ff30d02a55169849a90f35b753c391,"Showplace Cinemas Princeton 8, Princeton, Indiana",38.35403,-87.604424,1758493572227,Synapse54,1758493572227,Synapse54
106,Showtime Cinema,Southbridge St,Mooresville,Indiana,IN,46158,2794,51213101,51213101,783201,783201,Theatres-Movie,,,,Medium,Information,Independent,2500 - 4999,2500.0,4999.0,3,123000.0,Data Axle,7d36cd042e98bb6aeda87ad53fe16eef,"Showtime Cinema, Mooresville, Indiana",39.60152,-86.374117,1758493572227,Synapse54,1758493572227,Synapse54
107,Skyline Drive-in Theatre,E Michigan Rd,Shelbyville,Indiana,IN,46176,9105,51213202,"51213202, 72251117",783301,"783301, 581208","Drive-In Motion Picture Theaters, Restaurants",,,,High,Information,Independent,1500 - 2499,1500.0,2499.0,2,63000.0,Data Axle,a0372da85155a1871844d3e0b8b25bdb,"Skyline Drive-in Theatre, Shelbyville, Indiana",39.500904,-85.702827,1758493572227,Synapse54,1758493572227,Synapse54
108,Strand Theatre,S Main St,Kendallville,Indiana,IN,46755,1717,51213101,51213101,783201,783201,Theatres-Movie,,,,High,Information,Independent,10000 - 19999,10000.0,19999.0,7,273000.0,Data Axle,3cd34c5fe9f5cd45c39d56a4df65abfb,"Strand Theatre, Kendallville, Indiana",41.44196299999999,-85.26485,1758493572227,Synapse54,1758493572227,Synapse54
109,Studio 10 Cinemas-Republic Theatres,E State Road 44,Shelbyville,Indiana,IN,46176,1844,51213101,"51213101, 99999005",783201,"783201, 999966","Theatres-Movie, Federal Government Contractors",,,Republic Theatres,High,Information,Branch,,,,58,1830000.0,Data Axle,6631778751a6d4efd7de51fb75451ac3,"Studio 10 Cinemas-Republic Theatres, Shelbyville, Indiana",39.52159199999997,-85.752596,1758493572227,Synapse54,1758493572227,Synapse54
110,Studio Movie Grill,W 86th St,Indianapolis,Indiana,IN,46268,1930,51213101,"51213101, 72251117, 72241001",783201,"783201, 581208, 581301","Theatres-Movie, Restaurants, Bars",,,Studio Movie Grill Corporate,High,Information,Branch,10000 - 19999,10000.0,19999.0,7,444000.0,Data Axle,9e4b8dd6b826759ad9de5e45eb6dda1f,"Studio Movie Grill, Indianapolis, Indiana",39.908753999999995,-86.219748,1758493572227,Synapse54,1758493572227,Synapse54
111,The Bremen Theatre,E Plymouth St,Bremen,Indiana,IN,46506,1235,51213101,"51213101, 51211016",783201,"783201, 781211","Theatres-Movie, Video Production & Taping Service",,,,High,Information,Independent,5000 - 9999,5000.0,9999.0,4,197000.0,Data Axle,f88064c084ce27cf5680b1beae6caec3,"The Bremen Theatre, Bremen, Indiana",41.44680299999999,-86.14630600000001,1758493572227,Synapse54,1758493572227,Synapse54
112,The Historic Artcraft Theatre,N Main St,Franklin,Indiana,IN,46131,2335,51213101,51213101,783201,783201,Theatres-Movie,,,,High,Information,Independent,2500 - 4999,2500.0,4999.0,1,47000.0,Data Axle,a6bffb6924fa6fad61f725a8534e0af8,"The Historic Artcraft Theatre, Franklin, Indiana",39.481193999999995,-86.05479799999999,1758493572227,Synapse54,1758493572227,Synapse54
113,The Indiana Theater,E Main St,Washington,Indiana,IN,47501,2917,51213101,51213101,783201,783201,Theatres-Movie,,,,High,Information,Independent,100000+,100000.0,,31,1494000.0,Data Axle,5104822df5f74952869afef47620a11c,"The Indiana Theater, Washington, Indiana",38.65670000000001,-87.17070699999998,1758493572227,Synapse54,1758493572227,Synapse54
114,The Royal Theater,S Washington St,Danville,Indiana,IN,46122,1709,51213101,51213101,783201,783201,Theatres-Movie,,,,High,Information,Independent,10000 - 19999,10000.0,19999.0,8,,Data Axle,e1dd9ee0d993b94cac16e942926ca09d,"The Royal Theater, Danville, Indiana",39.76020299999996,-86.52354399999999,1758493572227,Synapse54,1758493572227,Synapse54
115,The Times Theater,Main St,Rochester,Indiana,IN,46975,1320,51213101,51213101,783201,783201,Theatres-Movie,,,,High,Information,Independent,10000 - 19999,10000.0,19999.0,6,233000.0,Data Axle,58942969c77db239a7a8619e154a2d87,"The Times Theater, Rochester, Indiana",41.06762899999998,-86.216329,1758493572227,Synapse54,1758493572227,Synapse54
116,Tibbs Drive-in Theatre,S Tibbs Ave,Indianapolis,Indiana,IN,46241,1620,51213202,51213202,783301,783301,Drive-In Motion Picture Theaters,,,,High,Information,Independent,5000 - 9999,5000.0,9999.0,5,222000.0,Data Axle,e2b303e08f8548ce6c41d61ca3f05871,"Tibbs Drive-in Theatre, Indianapolis, Indiana",39.75928699999999,-86.217855,1758493572227,Synapse54,1758493572227,Synapse54
117,Tivoli Theatre,N Washington St,Spencer,Indiana,IN,47460,,51213101,"51213101, 71111007",783201,"783201, 792207","Theatres-Movie, Theatres-Live",,,,High,Information,Independent,10000 - 19999,10000.0,19999.0,7,,Data Axle,7f443831ebef7f8ea433fc109c7ac8e7,"Tivoli Theatre, Spencer, Indiana",39.286521999999984,-86.761001,1758493572227,Synapse54,1758493572227,Synapse54
118,Towne Square Cinema,W Franklin St,Winchester,Indiana,IN,47394,1821,51213101,51213101,783201,783201,Theatres-Movie,,,,High,Information,Independent,10000 - 19999,10000.0,19999.0,8,344000.0,Data Axle,8c7d9033c2858aea6c34ec9a36b12b7f,"Towne Square Cinema, Winchester, Indiana",40.17126099999997,-84.982062,1758493572227,Synapse54,1758493572227,Synapse54
119,Twin Lakes Cinema I & II,S Main St,Monticello,Indiana,IN,47960,2329,51213101,51213101,783201,783201,Theatres-Movie,,,,High,Information,Independent,10000 - 19999,10000.0,19999.0,5,202000.0,Data Axle,f14fd7a49826c9852d5b24e1ada77751,"Twin Lakes Cinema I & II, Monticello, Indiana",40.74439899999999,-86.761328,1758493572227,Synapse54,1758493572227,Synapse54
120,UEC Bedford,Brock Ln,Bedford,Indiana,IN,47421,5276,51213101,51213101,783201,783201,Theatres-Movie,,,United Entertainment Corp,High,Information,Branch,20000 - 39999,20000.0,39999.0,11,422000.0,Data Axle,b3e31fc4657986d20e95787c793ae6e1,"UEC Bedford, Bedford, Indiana",38.845094999999986,-86.514185,1758493572227,Synapse54,1758493572227,Synapse54
121,Vevay's Historic Hoosier Theater,Ferry St,Vevay,Indiana,IN,47043,1101,51213101,51213101,783201,783201,Theatres-Movie,,,,High,Information,Independent,10000 - 19999,10000.0,19999.0,5,188000.0,Data Axle,a9f3cfaf5dc5e97399ccd72f9cf1f22b,"Vevay's Historic Hoosier Theater, Vevay, Indiana",38.747171000000016,-85.066944,1758493572227,Synapse54,1758493572227,Synapse54
122,Wabash Landing 9-GQT Movies,E State St,West Lafayette,Indiana,IN,47906,3225,51213101,51213101,783201,783201,Theatres-Movie,,,"Goodrich Theater OpCo, LLC",High,Information,Branch,40000 - 99999,40000.0,99999.0,12,658000.0,Data Axle,a2956975431b85756c899fb093d7993c,"Wabash Landing 9-GQT Movies, West Lafayette, Indiana",40.42165399999999,-86.901264,1758493572227,Synapse54,1758493572227,Synapse54
123,Walls' Drive in,E State Road 66,Cannelton,Indiana,IN,47520,,51213202,"51213202, 72251117",783301,"783301, 581208","Drive-In Motion Picture Theaters, Restaurants",,,,Medium,Information,Independent,1500 - 2499,1500.0,2499.0,15,550000.0,Data Axle,f94a3150cb1c52d405ae5e6108651170,"Walls' Drive in, Cannelton, Indiana",37.906320999999984,-86.73446099999998,1758493572227,Synapse54,1758493572227,Synapse54
124,Wolf Theatre,W Ann Blvd,Greensburg,Indiana,IN,47240,3245,51213101,51213101,783201,783201,Theatres-Movie,,,,High,Information,Independent,10000 - 19999,10000.0,19999.0,11,484000.0,Data Axle,28b9e52c6c94751a9037bde682584b4f,"Wolf Theatre, Greensburg, Indiana",39.34986699999999,-85.497087,1758493572227,Synapse54,1758493572227,Synapse54
125,Xscape Theatre Management LLC,Northgate Blvd,New Albany,Indiana,IN,47150,6421,51213101,51213101,783201,783201,Theatres-Movie,,,Patoka Capital LLC,High,Information,Headquarters,5000 - 9999,5000.0,9999.0,30,1361000.0,Data Axle,d00e0750273378aed6580bc496127e1d,"Xscape Theatre Management LLC, New Albany, Indiana",38.33280399999999,-85.81480899999997,1758493572227,Synapse54,1758493572227,Synapse54
126,Xscape Theatres Jeffersonville 12,Gottbrath Pkwy,Jeffersonville,Indiana,IN,47130,8991,51213101,51213101,783201,783201,Theatres-Movie,,,Xscape Theatre Management LLC,High,Information,Branch,1500 - 2499,1500.0,2499.0,3,148000.0,Data Axle,78d5ce7ae95d0b9e70b7799e44f741af,"Xscape Theatres Jeffersonville 12, Jeffersonville, Indiana",38.346405999999995,-85.69690000000001,1758493572227,Synapse54,1758493572227,Synapse54
127,Yes Cinema,Jackson St,Columbus,Indiana,IN,47201,6708,51213101,51213101,783201,783201,Theatres-Movie,,,,High,Information,Independent,20000 - 39999,20000.0,39999.0,14,705000.0,Data Axle,0f572ade25e753c35e529e2f42e9f634,"Yes Cinema, Columbus, Indiana",39.201880999999986,-85.923107,1758493572227,Synapse54,1758493572227,Synapse54
